{"type":"FeatureCollection","features":[{"geometry":{"type":"Point","coordinates":[-2.77953953,37.1412099,853.0]},"type":"Feature","properties":{"diVien":"E","viVien":21.0,"znaComarcal":"610402","ID":"id04001","Municipio":"Abla"}},{"geometry":{"type":"Point","coordinates":[-3.02330257,36.74868325,14.0]},"type":"Feature","properties":{"diVien":"S","viVien":3.0,"znaComarcal":"610403","ID":"id04003","Municipio":"Adra"}},{"geometry":{"type":"Point","coordinates":[-2.14799133,37.38850758,420.0]},"type":"Feature","properties":{"diVien":"SE","viVien":16.0,"znaComarcal":"610401","ID":"id04006","Municipio":"Albox"}},{"geometry":{"type":"Point","coordinates":[-2.46413188,36.83892362,16.0]},"type":"Feature","properties":{"diVien":"E","viVien":25.0,"znaComarcal":"610403","ID":"id04013","Municipio":"Almería"}},{"geometry":{"type":"Point","coordinates":[-2.45318749,37.26120059,1209.0]},"type":"Feature","properties":{"diVien":"NE","viVien":7.0,"znaComarcal":"610401","ID":"id04019","Municipio":"Bacares"}},{"geometry":{"type":"Point","coordinates":[-2.43594364,37.33068864,817.0]},"type":"Feature","properties":{"diVien":"E","viVien":19.0,"znaComarcal":"610401","ID":"id04021","Municipio":"Bayarque"}},{"geometry":{"type":"Point","coordinates":[-2.94948207,36.84732147,340.0]},"type":"Feature","properties":{"diVien":"SE","viVien":10.0,"znaComarcal":"610403","ID":"id04029","Municipio":"Berja"}},{"geometry":{"type":"Point","coordinates":[-1.89349648,36.99742391,6.0]},"type":"Feature","properties":{"diVien":"NE","viVien":20.0,"znaComarcal":"610404","ID":"id04032","Municipio":"Carboneras"}},{"geometry":{"type":"Point","coordinates":[-2.26658541,37.59512473,1039.0]},"type":"Feature","properties":{"diVien":"SE","viVien":14.0,"znaComarcal":"610401","ID":"id04037","Municipio":"Chirivel"}},{"geometry":{"type":"Point","coordinates":[-2.60175846,36.8769393,716.0]},"type":"Feature","properties":{"diVien":"SE","viVien":13.0,"znaComarcal":"610403","ID":"id04041","Municipio":"Enix"}},{"geometry":{"type":"Point","coordinates":[-2.84178852,37.17135438,950.0]},"type":"Feature","properties":{"diVien":"E","viVien":28.0,"znaComarcal":"610402","ID":"id04045","Municipio":"Fiñana"}},{"geometry":{"type":"Point","coordinates":[-2.49279322,36.9530923,173.0]},"type":"Feature","properties":{"diVien":"O","viVien":11.0,"znaComarcal":"610403","ID":"id04047","Municipio":"Gádor"}},{"geometry":{"type":"Point","coordinates":[-1.9417002,37.17027055,121.0]},"type":"Feature","properties":{"diVien":"E","viVien":14.0,"znaComarcal":"610404","ID":"id04048","Municipio":"Gallardos, Los"}},{"geometry":{"type":"Point","coordinates":[-1.82347743,37.1797194,20.0]},"type":"Feature","properties":{"diVien":"E","viVien":11.0,"znaComarcal":"610404","ID":"id04049","Municipio":"Garrucha"}},{"geometry":{"type":"Point","coordinates":[-2.53905331,37.12083904,763.0]},"type":"Feature","properties":{"diVien":"E","viVien":21.0,"znaComarcal":"610402","ID":"id04050","Municipio":"Gérgal"}},{"geometry":{"type":"Point","coordinates":[-1.943031,37.38937619,279.0]},"type":"Feature","properties":{"diVien":"E","viVien":12.0,"znaComarcal":"610401","ID":"id04053","Municipio":"Huércal-Overa"}},{"geometry":{"type":"Point","coordinates":[-2.88903331,36.99456726,920.0]},"type":"Feature","properties":{"diVien":"E","viVien":9.0,"znaComarcal":"610403","ID":"id04057","Municipio":"Láujar de Andarax"}},{"geometry":{"type":"Point","coordinates":[-2.06592032,37.21648353,516.0]},"type":"Feature","properties":{"diVien":"E","viVien":11.0,"znaComarcal":"610401","ID":"id04059","Municipio":"Lubrín"}},{"geometry":{"type":"Point","coordinates":[-2.30432229,37.33233031,536.0]},"type":"Feature","properties":{"diVien":"E","viVien":15.0,"znaComarcal":"610401","ID":"id04062","Municipio":"Macael"}},{"geometry":{"type":"Point","coordinates":[-2.16479793,37.7115544,1197.0]},"type":"Feature","properties":{"diVien":"SE","viVien":12.0,"znaComarcal":"610401","ID":"id04063","Municipio":"María"}},{"geometry":{"type":"Point","coordinates":[-1.85016798,37.14008707,140.0]},"type":"Feature","properties":{"diVien":"E","viVien":12.0,"znaComarcal":"610404","ID":"id04064","Municipio":"Mojácar"}},{"geometry":{"type":"Point","coordinates":[-2.64792293,37.10502345,596.0]},"type":"Feature","properties":{"diVien":"E","viVien":24.0,"znaComarcal":"610402","ID":"id04065","Municipio":"Nacimiento"}},{"geometry":{"type":"Point","coordinates":[-2.20611069,36.96580749,357.0]},"type":"Feature","properties":{"diVien":"NE","viVien":24.0,"znaComarcal":"610404","ID":"id04066","Municipio":"Níjar"}},{"geometry":{"type":"Point","coordinates":[-2.74552024,37.03829786,961.0]},"type":"Feature","properties":{"diVien":"SE","viVien":7.0,"znaComarcal":"610403","ID":"id04067","Municipio":"Ohanes"}},{"geometry":{"type":"Point","coordinates":[-2.29602131,37.48360163,1022.0]},"type":"Feature","properties":{"diVien":"SE","viVien":16.0,"znaComarcal":"610401","ID":"id04070","Municipio":"Oria"}},{"geometry":{"type":"Point","coordinates":[-1.745159,37.41211031,194.0]},"type":"Feature","properties":{"diVien":"E","viVien":13.0,"znaComarcal":"610404","ID":"id04075","Municipio":"Pulpí"}},{"geometry":{"type":"Point","coordinates":[-2.6150576,36.76467854,7.0]},"type":"Feature","properties":{"diVien":"E","viVien":15.0,"znaComarcal":"610403","ID":"id04079","Municipio":"Roquetas de Mar"}},{"geometry":{"type":"Point","coordinates":[-2.50991257,37.34295293,823.0]},"type":"Feature","properties":{"diVien":"E","viVien":21.0,"znaComarcal":"610401","ID":"id04083","Municipio":"Serón"}},{"geometry":{"type":"Point","coordinates":[-2.124113,37.09821538,409.0]},"type":"Feature","properties":{"diVien":"E","viVien":15.0,"znaComarcal":"610402","ID":"id04086","Municipio":"Sorbas"}},{"geometry":{"type":"Point","coordinates":[-2.39150625,37.04984427,402.0]},"type":"Feature","properties":{"diVien":"E","viVien":28.0,"znaComarcal":"610402","ID":"id04088","Municipio":"Tabernas"}},{"geometry":{"type":"Point","coordinates":[-2.07770837,37.46930863,712.0]},"type":"Feature","properties":{"diVien":"SE","viVien":13.0,"znaComarcal":"610401","ID":"id04089","Municipio":"Taberno"}},{"geometry":{"type":"Point","coordinates":[-2.40192493,37.19492499,926.0]},"type":"Feature","properties":{"diVien":"E","viVien":17.0,"znaComarcal":"610402","ID":"id04097","Municipio":"Velefique"}},{"geometry":{"type":"Point","coordinates":[-2.07415558,37.64799415,838.0]},"type":"Feature","properties":{"diVien":"E","viVien":12.0,"znaComarcal":"610401","ID":"id04099","Municipio":"Vélez-Rubio"}},{"geometry":{"type":"Point","coordinates":[-1.86877507,37.24675325,101.0]},"type":"Feature","properties":{"diVien":"E","viVien":11.0,"znaComarcal":"610404","ID":"id04100","Municipio":"Vera"}},{"geometry":{"type":"Point","coordinates":[-2.42781271,36.88906423,71.0]},"type":"Feature","properties":{"diVien":"E","viVien":25.0,"znaComarcal":"610403","ID":"id04101","Municipio":"Viator"}},{"geometry":{"type":"Point","coordinates":[-2.81490838,36.77576137,81.0]},"type":"Feature","properties":{"diVien":"E","viVien":17.0,"znaComarcal":"610403","ID":"id04902","Municipio":"Ejido, El"}},{"geometry":{"type":"Point","coordinates":[-5.72311956,36.46294815,212.0]},"type":"Feature","properties":{"diVien":"SE","viVien":31.0,"znaComarcal":"611102","ID":"id11001","Municipio":"Alcalá de los Gazules"}},{"geometry":{"type":"Point","coordinates":[-5.65719916,36.65594556,205.0]},"type":"Feature","properties":{"diVien":"SE","viVien":21.0,"znaComarcal":"611102","ID":"id11003","Municipio":"Algar"}},{"geometry":{"type":"Point","coordinates":[-5.44774178,36.13137811,19.0]},"type":"Feature","properties":{"diVien":"E","viVien":12.0,"znaComarcal":"611104","ID":"id11004","Municipio":"Algeciras"}},{"geometry":{"type":"Point","coordinates":[-5.40470441,36.88076763,366.0]},"type":"Feature","properties":{"diVien":"NE","viVien":6.0,"znaComarcal":"611101","ID":"id11005","Municipio":"Algodonales"}},{"geometry":{"type":"Point","coordinates":[-5.80640518,36.74821011,181.0]},"type":"Feature","properties":{"diVien":"SE","viVien":21.0,"znaComarcal":"611102","ID":"id11006","Municipio":"Arcos de la Frontera"}},{"geometry":{"type":"Point","coordinates":[-5.91828263,36.19202922,8.0]},"type":"Feature","properties":{"diVien":"E","viVien":25.0,"znaComarcal":"611103","ID":"id11007","Municipio":"Barbate"}},{"geometry":{"type":"Point","coordinates":[-5.49277944,36.18524931,23.0]},"type":"Feature","properties":{"diVien":"E","viVien":19.0,"znaComarcal":"611104","ID":"id11008","Municipio":"Barrios, Los"}},{"geometry":{"type":"Point","coordinates":[-5.50561856,36.75881857,285.0]},"type":"Feature","properties":{"diVien":"S","viVien":20.0,"znaComarcal":"611101","ID":"id11011","Municipio":"Bosque, El"}},{"geometry":{"type":"Point","coordinates":[-6.28414575,36.52171152,13.0]},"type":"Feature","properties":{"diVien":"SE","viVien":24.0,"znaComarcal":"611103","ID":"id11012","Municipio":"Cádiz"}},{"geometry":{"type":"Point","coordinates":[-5.45303398,36.31874497,258.0]},"type":"Feature","properties":{"diVien":"SE","viVien":14.0,"znaComarcal":"611104","ID":"id11013","Municipio":"Castellar de la Frontera"}},{"geometry":{"type":"Point","coordinates":[-6.08856877,36.27458798,11.0]},"type":"Feature","properties":{"diVien":"E","viVien":26.0,"znaComarcal":"611103","ID":"id11014","Municipio":"Conil de la Frontera"}},{"geometry":{"type":"Point","coordinates":[-6.14620494,36.41836916,13.0]},"type":"Feature","properties":{"diVien":"E","viVien":24.0,"znaComarcal":"611103","ID":"id11015","Municipio":"Chiclana de la Frontera"}},{"geometry":{"type":"Point","coordinates":[-6.44220215,36.73790677,8.0]},"type":"Feature","properties":{"diVien":"O","viVien":10.0,"znaComarcal":"611103","ID":"id11016","Municipio":"Chipiona"}},{"geometry":{"type":"Point","coordinates":[-5.36588983,36.7679883,901.0]},"type":"Feature","properties":{"diVien":"S","viVien":14.0,"znaComarcal":"611101","ID":"id11019","Municipio":"Grazalema"}},{"geometry":{"type":"Point","coordinates":[-6.1287534,36.70212746,57.0]},"type":"Feature","properties":{"diVien":"S","viVien":16.0,"znaComarcal":"611102","ID":"id11020","Municipio":"Jerez de la Frontera"}},{"geometry":{"type":"Point","coordinates":[-5.45548727,36.43225697,205.0]},"type":"Feature","properties":{"diVien":"SE","viVien":16.0,"znaComarcal":"611101","ID":"id11021","Municipio":"Jimena de la Frontera"}},{"geometry":{"type":"Point","coordinates":[-5.34715803,36.16764411,3.0]},"type":"Feature","properties":{"diVien":"E","viVien":16.0,"znaComarcal":"611104","ID":"id11022","Municipio":"Línea de la Concepción, La"}},{"geometry":{"type":"Point","coordinates":[-5.92469144,36.45604099,335.0]},"type":"Feature","properties":{"diVien":"SE","viVien":13.0,"znaComarcal":"611102","ID":"id11023","Municipio":"Medina-Sidonia"}},{"geometry":{"type":"Point","coordinates":[-5.26815266,36.93513981,621.0]},"type":"Feature","properties":{"diVien":"SE","viVien":14.0,"znaComarcal":"611101","ID":"id11024","Municipio":"Olvera"}},{"geometry":{"type":"Point","coordinates":[-6.22915634,36.60012378,11.0]},"type":"Feature","properties":{"diVien":"SE","viVien":22.0,"znaComarcal":"611103","ID":"id11027","Municipio":"Puerto de Santa María, El"}},{"geometry":{"type":"Point","coordinates":[-6.36315877,36.62011111,9.0]},"type":"Feature","properties":{"diVien":"SE","viVien":18.0,"znaComarcal":"611103","ID":"id11030","Municipio":"Rota"}},{"geometry":{"type":"Point","coordinates":[-6.20514669,36.46528609,25.0]},"type":"Feature","properties":{"diVien":"SE","viVien":26.0,"znaComarcal":"611103","ID":"id11031","Municipio":"San Fernando"}},{"geometry":{"type":"Point","coordinates":[-6.35311695,36.77598004,31.0]},"type":"Feature","properties":{"diVien":"O","viVien":4.0,"znaComarcal":"611103","ID":"id11032","Municipio":"Sanlúcar de Barrameda"}},{"geometry":{"type":"Point","coordinates":[-5.38401377,36.20999986,107.0]},"type":"Feature","properties":{"diVien":"E","viVien":16.0,"znaComarcal":"611104","ID":"id11033","Municipio":"San Roque"}},{"geometry":{"type":"Point","coordinates":[-5.59945188,36.0189604,59.0]},"type":"Feature","properties":{"diVien":"E","viVien":38.0,"znaComarcal":"611104","ID":"id11035","Municipio":"Tarifa"}},{"geometry":{"type":"Point","coordinates":[-6.17660584,36.86924138,69.0]},"type":"Feature","properties":{"diVien":"O","viVien":16.0,"znaComarcal":"611103","ID":"id11037","Municipio":"Trebujena"}},{"geometry":{"type":"Point","coordinates":[-5.44313148,36.6779235,337.0]},"type":"Feature","properties":{"diVien":"SE","viVien":17.0,"znaComarcal":"611101","ID":"id11038","Municipio":"Ubrique"}},{"geometry":{"type":"Point","coordinates":[-5.64081376,36.86340796,193.0]},"type":"Feature","properties":{"diVien":"S","viVien":18.0,"znaComarcal":"611102","ID":"id11041","Municipio":"Villamartín"}},{"geometry":{"type":"Point","coordinates":[-5.80077309,36.60534292,142.0]},"type":"Feature","properties":{"diVien":"E","viVien":12.0,"znaComarcal":"611102","ID":"id11902","Municipio":"San José del Valle"}},{"geometry":{"type":"Point","coordinates":[-4.66061547,37.52004219,379.0]},"type":"Feature","properties":{"diVien":"S","viVien":22.0,"znaComarcal":"611403","ID":"id14002","Municipio":"Aguilar de la Frontera"}},{"geometry":{"type":"Point","coordinates":[-5.02076595,37.80943577,119.0]},"type":"Feature","properties":{"diVien":"S","viVien":23.0,"znaComarcal":"611402","ID":"id14005","Municipio":"Almodóvar del Río"}},{"geometry":{"type":"Point","coordinates":[-4.53987316,37.26716339,454.0]},"type":"Feature","properties":{"diVien":"S","viVien":19.0,"znaComarcal":"611403","ID":"id14010","Municipio":"Benamejí"}},{"geometry":{"type":"Point","coordinates":[-5.43808665,38.406797,595.0]},"type":"Feature","properties":{"diVien":"O","viVien":12.0,"znaComarcal":"611401","ID":"id14011","Municipio":"Blázquez, Los"}},{"geometry":{"type":"Point","coordinates":[-4.38339381,37.89649386,346.0]},"type":"Feature","properties":{"diVien":"SO","viVien":18.0,"znaComarcal":"611402","ID":"id14012","Municipio":"Bujalance"}},{"geometry":{"type":"Point","coordinates":[-4.44656669,37.47101586,447.0]},"type":"Feature","properties":{"diVien":"SO","viVien":16.0,"znaComarcal":"611403","ID":"id14013","Municipio":"Cabra"}},{"geometry":{"type":"Point","coordinates":[-4.32426689,38.27037293,746.0]},"type":"Feature","properties":{"diVien":"SO","viVien":18.0,"znaComarcal":"611401","ID":"id14016","Municipio":"Cardeña"}},{"geometry":{"type":"Point","coordinates":[-4.93225379,37.67519215,212.0]},"type":"Feature","properties":{"diVien":"S","viVien":20.0,"znaComarcal":"611402","ID":"id14017","Municipio":"Carlota, La"}},{"geometry":{"type":"Point","coordinates":[-4.49948242,37.94050285,182.0]},"type":"Feature","properties":{"diVien":"SO","viVien":19.0,"znaComarcal":"611402","ID":"id14018","Municipio":"Carpio, El"}},{"geometry":{"type":"Point","coordinates":[-4.48168693,37.69040121,236.0]},"type":"Feature","properties":{"diVien":"SO","viVien":17.0,"znaComarcal":"611403","ID":"id14019","Municipio":"Castro del Río"}},{"geometry":{"type":"Point","coordinates":[-4.50055371,38.40958084,596.0]},"type":"Feature","properties":{"diVien":"SO","viVien":11.0,"znaComarcal":"611401","ID":"id14020","Municipio":"Conquista"}},{"geometry":{"type":"Point","coordinates":[-4.78032455,37.87954225,106.0]},"type":"Feature","properties":{"diVien":"S","viVien":20.0,"znaComarcal":"611402","ID":"id14021","Municipio":"Córdoba"}},{"geometry":{"type":"Point","coordinates":[-4.3594167,37.55542058,585.0]},"type":"Feature","properties":{"diVien":"SO","viVien":16.0,"znaComarcal":"611403","ID":"id14022","Municipio":"Doña Mencía"}},{"geometry":{"type":"Point","coordinates":[-4.89495696,38.44549239,587.0]},"type":"Feature","properties":{"diVien":"NO","viVien":16.0,"znaComarcal":"611401","ID":"id14023","Municipio":"Dos Torres"}},{"geometry":{"type":"Point","coordinates":[-5.01731472,38.18906775,556.0]},"type":"Feature","properties":{"diVien":"SO","viVien":11.0,"znaComarcal":"611401","ID":"id14026","Municipio":"Espiel"}},{"geometry":{"type":"Point","coordinates":[-4.71932943,37.66833878,336.0]},"type":"Feature","properties":{"diVien":"S","viVien":21.0,"znaComarcal":"611402","ID":"id14027","Municipio":"Fernán-Núñez"}},{"geometry":{"type":"Point","coordinates":[-5.41923282,38.26702154,627.0]},"type":"Feature","properties":{"diVien":"O","viVien":14.0,"znaComarcal":"611401","ID":"id14029","Municipio":"Fuente Obejuna"}},{"geometry":{"type":"Point","coordinates":[-5.10411463,37.70323501,158.0]},"type":"Feature","properties":{"diVien":"S","viVien":22.0,"znaComarcal":"611402","ID":"id14030","Municipio":"Fuente Palmera"}},{"geometry":{"type":"Point","coordinates":[-5.14848249,38.50061616,548.0]},"type":"Feature","properties":{"diVien":"O","viVien":14.0,"znaComarcal":"611401","ID":"id14035","Municipio":"Hinojosa del Duque"}},{"geometry":{"type":"Point","coordinates":[-5.24226581,37.83117536,181.0]},"type":"Feature","properties":{"diVien":"S","viVien":20.0,"znaComarcal":"611401","ID":"id14036","Municipio":"Hornachuelos"}},{"geometry":{"type":"Point","coordinates":[-4.48451348,37.40901404,484.0]},"type":"Feature","properties":{"diVien":"S","viVien":15.0,"znaComarcal":"611403","ID":"id14038","Municipio":"Lucena"}},{"geometry":{"type":"Point","coordinates":[-4.63785702,37.59232558,397.0]},"type":"Feature","properties":{"diVien":"S","viVien":19.0,"znaComarcal":"611403","ID":"id14042","Municipio":"Montilla"}},{"geometry":{"type":"Point","coordinates":[-4.38130891,38.02639376,197.0]},"type":"Feature","properties":{"diVien":"SO","viVien":18.0,"znaComarcal":"611402","ID":"id14043","Municipio":"Montoro"}},{"geometry":{"type":"Point","coordinates":[-4.80059964,38.13442999,702.0]},"type":"Feature","properties":{"diVien":"SO","viVien":13.0,"znaComarcal":"611401","ID":"id14047","Municipio":"Obejo"}},{"geometry":{"type":"Point","coordinates":[-5.28521754,37.70113499,54.0]},"type":"Feature","properties":{"diVien":"SE","viVien":20.0,"znaComarcal":"611402","ID":"id14049","Municipio":"Palma del Río"}},{"geometry":{"type":"Point","coordinates":[-4.76362098,38.42795152,628.0]},"type":"Feature","properties":{"diVien":"NO","viVien":14.0,"znaComarcal":"611401","ID":"id14051","Municipio":"Pedroche"}},{"geometry":{"type":"Point","coordinates":[-5.26610998,38.29876873,538.0]},"type":"Feature","properties":{"diVien":"O","viVien":16.0,"znaComarcal":"611401","ID":"id14052","Municipio":"Peñarroya-Pueblonuevo"}},{"geometry":{"type":"Point","coordinates":[-4.84958064,38.37888591,649.0]},"type":"Feature","properties":{"diVien":"NO","viVien":14.0,"znaComarcal":"611401","ID":"id14054","Municipio":"Pozoblanco"}},{"geometry":{"type":"Point","coordinates":[-4.191759,37.43981618,649.0]},"type":"Feature","properties":{"diVien":"O","viVien":14.0,"znaComarcal":"611403","ID":"id14055","Municipio":"Priego de Córdoba"}},{"geometry":{"type":"Point","coordinates":[-4.77225259,37.3883058,229.0]},"type":"Feature","properties":{"diVien":"S","viVien":23.0,"znaComarcal":"611403","ID":"id14056","Municipio":"Puente Genil"}},{"geometry":{"type":"Point","coordinates":[-4.37022684,37.32526431,635.0]},"type":"Feature","properties":{"diVien":"SO","viVien":14.0,"znaComarcal":"611403","ID":"id14058","Municipio":"Rute"}},{"geometry":{"type":"Point","coordinates":[-4.84662658,37.56749755,241.0]},"type":"Feature","properties":{"diVien":"S","viVien":22.0,"znaComarcal":"611402","ID":"id14060","Municipio":"Santaella"}},{"geometry":{"type":"Point","coordinates":[-4.90500504,38.59608265,561.0]},"type":"Feature","properties":{"diVien":"O","viVien":11.0,"znaComarcal":"611401","ID":"id14061","Municipio":"Santa Eufemia"}},{"geometry":{"type":"Point","coordinates":[-4.62846311,38.32241888,724.0]},"type":"Feature","properties":{"diVien":"SO","viVien":12.0,"znaComarcal":"611401","ID":"id14069","Municipio":"Villanueva de Córdoba"}},{"geometry":{"type":"Point","coordinates":[-5.0146828,38.07637233,695.0]},"type":"Feature","properties":{"diVien":"S","viVien":10.0,"znaComarcal":"611401","ID":"id14073","Municipio":"Villaviciosa de Córdoba"}},{"geometry":{"type":"Point","coordinates":[-3.65748033,37.23090185,649.0]},"type":"Feature","properties":{"diVien":"S","viVien":20.0,"znaComarcal":"611801","ID":"id18003","Municipio":"Albolote"}},{"geometry":{"type":"Point","coordinates":[-3.20167375,36.79129267,240.0]},"type":"Feature","properties":{"diVien":"S","viVien":5.0,"znaComarcal":"611804","ID":"id18006","Municipio":"Albuñol"}},{"geometry":{"type":"Point","coordinates":[-3.62953573,36.92926956,734.0]},"type":"Feature","properties":{"diVien":"SE","viVien":14.0,"znaComarcal":"611803","ID":"id18007","Municipio":"Albuñuelas"}},{"geometry":{"type":"Point","coordinates":[-3.98605626,37.0037636,889.0]},"type":"Feature","properties":{"diVien":"SO","viVien":21.0,"znaComarcal":"611801","ID":"id18013","Municipio":"Alhama de Granada"}},{"geometry":{"type":"Point","coordinates":[-3.69091622,36.73441423,22.0]},"type":"Feature","properties":{"diVien":"S","viVien":5.0,"znaComarcal":"611804","ID":"id18017","Municipio":"Almuñécar"}},{"geometry":{"type":"Point","coordinates":[-2.77485648,37.49077779,843.0]},"type":"Feature","properties":{"diVien":"SE","viVien":27.0,"znaComarcal":"611802","ID":"id18023","Municipio":"Baza"}},{"geometry":{"type":"Point","coordinates":[-3.68369321,37.42820145,841.0]},"type":"Feature","properties":{"diVien":"S","viVien":16.0,"znaComarcal":"611801","ID":"id18028","Municipio":"Benalúa de las Villas"}},{"geometry":{"type":"Point","coordinates":[-3.19011463,36.97540561,1319.0]},"type":"Feature","properties":{"diVien":"E","viVien":4.0,"znaComarcal":"611803","ID":"id18030","Municipio":"Bérchules"}},{"geometry":{"type":"Point","coordinates":[-3.6156536,37.48233309,935.0]},"type":"Feature","properties":{"diVien":"S","viVien":16.0,"znaComarcal":"611801","ID":"id18038","Municipio":"Campotéjar"}},{"geometry":{"type":"Point","coordinates":[-3.35991264,36.96126531,1429.0]},"type":"Feature","properties":{"diVien":"S","viVien":2.0,"znaComarcal":"611803","ID":"id18042","Municipio":"Capileira"}},{"geometry":{"type":"Point","coordinates":[-2.77929932,37.79447243,904.0]},"type":"Feature","properties":{"diVien":"SE","viVien":19.0,"znaComarcal":"611802","ID":"id18046","Municipio":"Castril"}},{"geometry":{"type":"Point","coordinates":[-3.71436522,37.3742622,841.0]},"type":"Feature","properties":{"diVien":"S","viVien":16.0,"znaComarcal":"611801","ID":"id18051","Municipio":"Colomera"}},{"geometry":{"type":"Point","coordinates":[-2.771069,37.65604885,700.0]},"type":"Feature","properties":{"diVien":"SE","viVien":22.0,"znaComarcal":"611802","ID":"id18053","Municipio":"Cortes de Baza"}},{"geometry":{"type":"Point","coordinates":[-2.57596221,37.58371761,892.0]},"type":"Feature","properties":{"diVien":"E","viVien":30.0,"znaComarcal":"611802","ID":"id18056","Municipio":"Cúllar"}},{"geometry":{"type":"Point","coordinates":[-3.77093889,37.20165324,552.0]},"type":"Feature","properties":{"diVien":"SO","viVien":16.0,"znaComarcal":"611801","ID":"id18059","Municipio":"Chauchina"}},{"geometry":{"type":"Point","coordinates":[-3.8211484,37.13262106,693.0]},"type":"Feature","properties":{"diVien":"SO","viVien":18.0,"znaComarcal":"611801","ID":"id18061","Municipio":"Chimeneas"}},{"geometry":{"type":"Point","coordinates":[-3.33182232,37.32111088,1228.0]},"type":"Feature","properties":{"diVien":"NO","viVien":16.0,"znaComarcal":"611802","ID":"id18067","Municipio":"Diezma"}},{"geometry":{"type":"Point","coordinates":[-2.99120971,37.17930415,1210.0]},"type":"Feature","properties":{"diVien":"E","viVien":32.0,"znaComarcal":"611802","ID":"id18069","Municipio":"Dólar"}},{"geometry":{"type":"Point","coordinates":[-3.56634078,36.988117,788.0]},"type":"Feature","properties":{"diVien":"S","viVien":17.0,"znaComarcal":"611803","ID":"id18071","Municipio":"Dúrcal"}},{"geometry":{"type":"Point","coordinates":[-2.90951304,37.52882525,795.0]},"type":"Feature","properties":{"diVien":"SE","viVien":38.0,"znaComarcal":"611802","ID":"id18078","Municipio":"Freila"}},{"geometry":{"type":"Point","coordinates":[-2.9694879,37.36926976,1239.0]},"type":"Feature","properties":{"diVien":"N","viVien":8.0,"znaComarcal":"611802","ID":"id18085","Municipio":"Gor"}},{"geometry":{"type":"Point","coordinates":[-3.04440458,37.47925162,854.0]},"type":"Feature","properties":{"diVien":"NE","viVien":18.0,"znaComarcal":"611802","ID":"id18086","Municipio":"Gorafe"}},{"geometry":{"type":"Point","coordinates":[-3.60001883,37.17641932,684.0]},"type":"Feature","properties":{"diVien":"S","viVien":15.0,"znaComarcal":"611801","ID":"id18087","Municipio":"Granada"}},{"geometry":{"type":"Point","coordinates":[-3.13638082,37.30161072,913.0]},"type":"Feature","properties":{"diVien":"SE","viVien":22.0,"znaComarcal":"611802","ID":"id18089","Municipio":"Guadix"}},{"geometry":{"type":"Point","coordinates":[-2.54009537,37.80977052,952.0]},"type":"Feature","properties":{"diVien":"E","viVien":23.0,"znaComarcal":"611802","ID":"id18098","Municipio":"Huéscar"}},{"geometry":{"type":"Point","coordinates":[-3.51676416,37.2184559,1024.0]},"type":"Feature","properties":{"diVien":"O","viVien":11.0,"znaComarcal":"611801","ID":"id18099","Municipio":"Huétor de Santillán"}},{"geometry":{"type":"Point","coordinates":[-3.88172313,37.28611488,740.0]},"type":"Feature","properties":{"diVien":"S","viVien":14.0,"znaComarcal":"611801","ID":"id18102","Municipio":"Íllora"}},{"geometry":{"type":"Point","coordinates":[-3.53095401,37.39201995,804.0]},"type":"Feature","properties":{"diVien":"SO","viVien":21.0,"znaComarcal":"611801","ID":"id18105","Municipio":"Iznalloz"}},{"geometry":{"type":"Point","coordinates":[-3.82352623,36.94763567,900.0]},"type":"Feature","properties":{"diVien":"SE","viVien":13.0,"znaComarcal":"611801","ID":"id18107","Municipio":"Jayena"}},{"geometry":{"type":"Point","coordinates":[-3.15692541,37.1844213,1228.0]},"type":"Feature","properties":{"diVien":"E","viVien":18.0,"znaComarcal":"611802","ID":"id18108","Municipio":"Jerez del Marquesado"}},{"geometry":{"type":"Point","coordinates":[-3.48280867,36.91783148,659.0]},"type":"Feature","properties":{"diVien":"S","viVien":8.0,"znaComarcal":"611803","ID":"id18116","Municipio":"Lanjarón"}},{"geometry":{"type":"Point","coordinates":[-4.15218743,37.16628219,484.0]},"type":"Feature","properties":{"diVien":"SO","viVien":12.0,"znaComarcal":"611801","ID":"id18122","Municipio":"Loja"}},{"geometry":{"type":"Point","coordinates":[-3.40318791,36.78759064,526.0]},"type":"Feature","properties":{"diVien":"E","viVien":10.0,"znaComarcal":"611804","ID":"id18124","Municipio":"Lújar"}},{"geometry":{"type":"Point","coordinates":[-3.53893588,37.13135337,806.0]},"type":"Feature","properties":{"diVien":"S","viVien":9.0,"znaComarcal":"611801","ID":"id18134","Municipio":"Monachil"}},{"geometry":{"type":"Point","coordinates":[-3.50494602,37.57189363,1147.0]},"type":"Feature","properties":{"diVien":"E","viVien":20.0,"znaComarcal":"611801","ID":"id18136","Municipio":"Montejícar"}},{"geometry":{"type":"Point","coordinates":[-3.52123441,36.74574584,39.0]},"type":"Feature","properties":{"diVien":"S","viVien":6.0,"znaComarcal":"611804","ID":"id18140","Municipio":"Motril"}},{"geometry":{"type":"Point","coordinates":[-3.10838867,36.88713958,1115.0]},"type":"Feature","properties":{"diVien":"NE","viVien":3.0,"znaComarcal":"611804","ID":"id18141","Municipio":"Murtas"}},{"geometry":{"type":"Point","coordinates":[-3.68136529,36.81568141,286.0]},"type":"Feature","properties":{"diVien":"SE","viVien":5.0,"znaComarcal":"611804","ID":"id18148","Municipio":"Otívar"}},{"geometry":{"type":"Point","coordinates":[-3.23123516,37.50277869,1041.0]},"type":"Feature","properties":{"diVien":"N","viVien":18.0,"znaComarcal":"611802","ID":"id18152","Municipio":"Pedro Martínez"}},{"geometry":{"type":"Point","coordinates":[-2.43683434,37.96180328,1163.0]},"type":"Feature","properties":{"diVien":"E","viVien":16.0,"znaComarcal":"611802","ID":"id18164","Municipio":"Puebla de Don Fadrique"}},{"geometry":{"type":"Point","coordinates":[-3.58852615,36.74331277,77.0]},"type":"Feature","properties":{"diVien":"S","viVien":5.0,"znaComarcal":"611804","ID":"id18173","Municipio":"Salobreña"}},{"geometry":{"type":"Point","coordinates":[-3.2651633,37.00057381,1479.0]},"type":"Feature","properties":{"diVien":"SE","viVien":4.0,"znaComarcal":"611803","ID":"id18180","Municipio":"Trevélez"}},{"geometry":{"type":"Point","coordinates":[-3.08308672,36.99598166,906.0]},"type":"Feature","properties":{"diVien":"S","viVien":6.0,"znaComarcal":"611803","ID":"id18183","Municipio":"Válor"}},{"geometry":{"type":"Point","coordinates":[-4.14463614,36.97576785,894.0]},"type":"Feature","properties":{"diVien":"SO","viVien":6.0,"znaComarcal":"611801","ID":"id18192","Municipio":"Zafarraya"}},{"geometry":{"type":"Point","coordinates":[-6.51747768,37.26252304,75.0]},"type":"Feature","properties":{"diVien":"O","viVien":19.0,"znaComarcal":"612103","ID":"id21005","Municipio":"Almonte"}},{"geometry":{"type":"Point","coordinates":[-7.11496253,37.54947646,183.0]},"type":"Feature","properties":{"diVien":"SO","viVien":17.0,"znaComarcal":"612102","ID":"id21006","Municipio":"Alosno"}},{"geometry":{"type":"Point","coordinates":[-6.56158282,37.8894945,732.0]},"type":"Feature","properties":{"diVien":"SO","viVien":21.0,"znaComarcal":"612101","ID":"id21007","Municipio":"Aracena"}},{"geometry":{"type":"Point","coordinates":[-6.95381063,37.94521471,404.0]},"type":"Feature","properties":{"diVien":"SO","viVien":15.0,"znaComarcal":"612101","ID":"id21008","Municipio":"Aroche"}},{"geometry":{"type":"Point","coordinates":[-7.40543973,37.22437276,45.0]},"type":"Feature","properties":{"diVien":"SO","viVien":17.0,"znaComarcal":"612103","ID":"id21010","Municipio":"Ayamonte"}},{"geometry":{"type":"Point","coordinates":[-6.54229268,37.60903715,306.0]},"type":"Feature","properties":{"diVien":"SO","viVien":17.0,"znaComarcal":"612101","ID":"id21012","Municipio":"Berrocal"}},{"geometry":{"type":"Point","coordinates":[-6.53535271,37.33626979,109.0]},"type":"Feature","properties":{"diVien":"O","viVien":18.0,"znaComarcal":"612102","ID":"id21013","Municipio":"Bollullos Par del Condado"}},{"geometry":{"type":"Point","coordinates":[-6.31639457,37.97194335,586.0]},"type":"Feature","properties":{"diVien":"O","viVien":5.0,"znaComarcal":"612101","ID":"id21016","Municipio":"Cala"}},{"geometry":{"type":"Point","coordinates":[-6.5728713,37.76763727,520.0]},"type":"Feature","properties":{"diVien":"SO","viVien":18.0,"znaComarcal":"612101","ID":"id21019","Municipio":"Campofrío"}},{"geometry":{"type":"Point","coordinates":[-7.15548874,37.28348056,18.0]},"type":"Feature","properties":{"diVien":"SO","viVien":16.0,"znaComarcal":"612103","ID":"id21021","Municipio":"Cartaya"}},{"geometry":{"type":"Point","coordinates":[-6.93884083,37.73538041,298.0]},"type":"Feature","properties":{"diVien":"SO","viVien":23.0,"znaComarcal":"612102","ID":"id21023","Municipio":"Cerro de Andévalo, El"}},{"geometry":{"type":"Point","coordinates":[-6.87243524,38.13527618,431.0]},"type":"Feature","properties":{"diVien":"O","viVien":12.0,"znaComarcal":"612101","ID":"id21031","Municipio":"Encinasola"}},{"geometry":{"type":"Point","coordinates":[-6.97357026,37.37613276,24.0]},"type":"Feature","properties":{"diVien":"SO","viVien":18.0,"znaComarcal":"612102","ID":"id21035","Municipio":"Gibraleón"}},{"geometry":{"type":"Point","coordinates":[-7.41661058,37.52090526,133.0]},"type":"Feature","properties":{"diVien":"S","viVien":14.0,"znaComarcal":"612102","ID":"id21037","Municipio":"Granado, El"}},{"geometry":{"type":"Point","coordinates":[-6.37618796,37.29250784,81.0]},"type":"Feature","properties":{"diVien":"O","viVien":19.0,"znaComarcal":"612102","ID":"id21040","Municipio":"Hinojos"}},{"geometry":{"type":"Point","coordinates":[-6.95040588,37.26004113,24.0]},"type":"Feature","properties":{"diVien":"SO","viVien":17.0,"znaComarcal":"612103","ID":"id21041","Municipio":"Huelva"}},{"geometry":{"type":"Point","coordinates":[-6.72881521,37.91692219,655.0]},"type":"Feature","properties":{"diVien":"SO","viVien":16.0,"znaComarcal":"612101","ID":"id21043","Municipio":"Jabugo"}},{"geometry":{"type":"Point","coordinates":[-6.59127818,37.69259178,418.0]},"type":"Feature","properties":{"diVien":"SO","viVien":21.0,"znaComarcal":"612101","ID":"id21049","Municipio":"Minas de Riotinto"}},{"geometry":{"type":"Point","coordinates":[-6.83691754,37.27471025,50.0]},"type":"Feature","properties":{"diVien":"SO","viVien":18.0,"znaComarcal":"612103","ID":"id21050","Municipio":"Moguer"}},{"geometry":{"type":"Point","coordinates":[-7.34716755,37.7425975,195.0]},"type":"Feature","properties":{"diVien":"SO","viVien":19.0,"znaComarcal":"612102","ID":"id21057","Municipio":"Paymogo"}},{"geometry":{"type":"Point","coordinates":[-6.95728548,37.1777585,7.0]},"type":"Feature","properties":{"diVien":"O","viVien":17.0,"znaComarcal":"612103","ID":"id21060","Municipio":"Punta Umbría"}},{"geometry":{"type":"Point","coordinates":[-7.22038214,37.96758007,219.0]},"type":"Feature","properties":{"diVien":"SO","viVien":23.0,"znaComarcal":"612101","ID":"id21062","Municipio":"Rosal de la Frontera"}},{"geometry":{"type":"Point","coordinates":[-7.35019368,37.38864426,152.0]},"type":"Feature","properties":{"diVien":"SO","viVien":15.0,"znaComarcal":"612102","ID":"id21066","Municipio":"San Silvestre de Guzmán"}},{"geometry":{"type":"Point","coordinates":[-7.18869551,37.79680826,307.0]},"type":"Feature","properties":{"diVien":"SO","viVien":19.0,"znaComarcal":"612102","ID":"id21068","Municipio":"Santa Bárbara de Casa"}},{"geometry":{"type":"Point","coordinates":[-6.23468816,37.90505707,539.0]},"type":"Feature","properties":{"diVien":"N","viVien":13.0,"znaComarcal":"612101","ID":"id21069","Municipio":"Santa Olalla del Cala"}},{"geometry":{"type":"Point","coordinates":[-6.83379212,37.38311439,75.0]},"type":"Feature","properties":{"diVien":"SO","viVien":20.0,"znaComarcal":"612102","ID":"id21070","Municipio":"Trigueros"}},{"geometry":{"type":"Point","coordinates":[-6.75345585,37.57225802,272.0]},"type":"Feature","properties":{"diVien":"SO","viVien":20.0,"znaComarcal":"612102","ID":"id21072","Municipio":"Valverde del Camino"}},{"geometry":{"type":"Point","coordinates":[-7.34273595,37.30315158,88.0]},"type":"Feature","properties":{"diVien":"SO","viVien":17.0,"znaComarcal":"612103","ID":"id21073","Municipio":"Villablanca"}},{"geometry":{"type":"Point","coordinates":[-6.60851594,37.38899587,63.0]},"type":"Feature","properties":{"diVien":"SO","viVien":21.0,"znaComarcal":"612102","ID":"id21077","Municipio":"Villarrasa"}},{"geometry":{"type":"Point","coordinates":[-6.3386286,37.83369512,440.0]},"type":"Feature","properties":{"diVien":"SO","viVien":24.0,"znaComarcal":"612101","ID":"id21079","Municipio":"Zufre"}},{"geometry":{"type":"Point","coordinates":[-3.92944941,37.45979131,1029.0]},"type":"Feature","properties":{"diVien":"O","viVien":14.0,"znaComarcal":"612304","ID":"id23002","Municipio":"Alcalá la Real"}},{"geometry":{"type":"Point","coordinates":[-4.08750989,37.59013356,675.0]},"type":"Feature","properties":{"diVien":"SO","viVien":15.0,"znaComarcal":"612303","ID":"id23003","Municipio":"Alcaudete"}},{"geometry":{"type":"Point","coordinates":[-3.37167309,38.41203515,698.0]},"type":"Feature","properties":{"diVien":"E","viVien":14.0,"znaComarcal":"612301","ID":"id23004","Municipio":"Aldeaquemada"}},{"geometry":{"type":"Point","coordinates":[-4.05408787,38.03712706,211.0]},"type":"Feature","properties":{"diVien":"O","viVien":16.0,"znaComarcal":"612301","ID":"id23005","Municipio":"Andújar"}},{"geometry":{"type":"Point","coordinates":[-4.05446885,37.93559892,458.0]},"type":"Feature","properties":{"diVien":"O","viVien":18.0,"znaComarcal":"612303","ID":"id23006","Municipio":"Arjona"}},{"geometry":{"type":"Point","coordinates":[-3.4693067,37.99003004,769.0]},"type":"Feature","properties":{"diVien":"NE","viVien":14.0,"znaComarcal":"612303","ID":"id23009","Municipio":"Baeza"}},{"geometry":{"type":"Point","coordinates":[-3.77583606,38.09549321,342.0]},"type":"Feature","properties":{"diVien":"E","viVien":21.0,"znaComarcal":"612301","ID":"id23010","Municipio":"Bailén"}},{"geometry":{"type":"Point","coordinates":[-2.88730567,38.2506588,581.0]},"type":"Feature","properties":{"diVien":"E","viVien":14.0,"znaComarcal":"612302","ID":"id23012","Municipio":"Beas de Segura"}},{"geometry":{"type":"Point","coordinates":[-3.28571551,37.70505863,942.0]},"type":"Feature","properties":{"diVien":"N","viVien":5.0,"znaComarcal":"612304","ID":"id23017","Municipio":"Cabra del Santo Cristo"}},{"geometry":{"type":"Point","coordinates":[-3.56676191,37.67738522,829.0]},"type":"Feature","properties":{"diVien":"O","viVien":11.0,"znaComarcal":"612304","ID":"id23018","Municipio":"Cambil"}},{"geometry":{"type":"Point","coordinates":[-3.61672237,38.2759015,604.0]},"type":"Feature","properties":{"diVien":"E","viVien":17.0,"znaComarcal":"612301","ID":"id23024","Municipio":"Carolina, La"}},{"geometry":{"type":"Point","coordinates":[-3.12877307,38.25577383,760.0]},"type":"Feature","properties":{"diVien":"E","viVien":16.0,"znaComarcal":"612301","ID":"id23025","Municipio":"Castellar"}},{"geometry":{"type":"Point","coordinates":[-3.94489566,37.52907137,684.0]},"type":"Feature","properties":{"diVien":"O","viVien":17.0,"znaComarcal":"612304","ID":"id23026","Municipio":"Castillo de Locubín"}},{"geometry":{"type":"Point","coordinates":[-3.00134534,37.91223066,823.0]},"type":"Feature","properties":{"diVien":"E","viVien":6.0,"znaComarcal":"612302","ID":"id23028","Municipio":"Cazorla"}},{"geometry":{"type":"Point","coordinates":[-3.88436808,37.8739655,436.0]},"type":"Feature","properties":{"diVien":"N","viVien":5.0,"znaComarcal":"612303","ID":"id23035","Municipio":"Fuerte del Rey"}},{"geometry":{"type":"Point","coordinates":[-2.73294114,38.42938373,835.0]},"type":"Feature","properties":{"diVien":"E","viVien":9.0,"znaComarcal":"612302","ID":"id23037","Municipio":"Génave"}},{"geometry":{"type":"Point","coordinates":[-3.69523974,37.74337599,636.0]},"type":"Feature","properties":{"diVien":"NE","viVien":16.0,"znaComarcal":"612303","ID":"id23038","Municipio":"Guardia de Jaén, La"}},{"geometry":{"type":"Point","coordinates":[-3.68678524,38.18148567,349.0]},"type":"Feature","properties":{"diVien":"E","viVien":22.0,"znaComarcal":"612301","ID":"id23039","Municipio":"Guarromán"}},{"geometry":{"type":"Point","coordinates":[-2.72011968,38.21647421,869.0]},"type":"Feature","properties":{"diVien":"E","viVien":9.0,"znaComarcal":"612302","ID":"id23043","Municipio":"Hornos"}},{"geometry":{"type":"Point","coordinates":[-3.4610967,37.65066057,1005.0]},"type":"Feature","properties":{"diVien":"E","viVien":15.0,"znaComarcal":"612304","ID":"id23044","Municipio":"Huelma"}},{"geometry":{"type":"Point","coordinates":[-2.99514476,37.91985553,933.0]},"type":"Feature","properties":{"diVien":"E","viVien":10.0,"znaComarcal":"612302","ID":"id23047","Municipio":"Iruela, La"}},{"geometry":{"type":"Point","coordinates":[-3.7903594,37.7651913,570.0]},"type":"Feature","properties":{"diVien":"N","viVien":10.0,"znaComarcal":"612303","ID":"id23050","Municipio":"Jaén"}},{"geometry":{"type":"Point","coordinates":[-3.47640117,37.84187626,609.0]},"type":"Feature","properties":{"diVien":"E","viVien":12.0,"znaComarcal":"612303","ID":"id23052","Municipio":"Jimena"}},{"geometry":{"type":"Point","coordinates":[-3.35042356,37.84139859,628.0]},"type":"Feature","properties":{"diVien":"SE","viVien":4.0,"znaComarcal":"612303","ID":"id23053","Municipio":"Jódar"}},{"geometry":{"type":"Point","coordinates":[-3.20142352,37.75901292,743.0]},"type":"Feature","properties":{"diVien":"N","viVien":7.0,"znaComarcal":"612302","ID":"id23054","Municipio":"Larva"}},{"geometry":{"type":"Point","coordinates":[-3.63503009,38.0920657,418.0]},"type":"Feature","properties":{"diVien":"E","viVien":23.0,"znaComarcal":"612301","ID":"id23055","Municipio":"Linares"}},{"geometry":{"type":"Point","coordinates":[-3.61182745,37.78628089,759.0]},"type":"Feature","properties":{"diVien":"E","viVien":18.0,"znaComarcal":"612303","ID":"id23058","Municipio":"Mancha Real"}},{"geometry":{"type":"Point","coordinates":[-4.17086502,38.04499845,245.0]},"type":"Feature","properties":{"diVien":"O","viVien":18.0,"znaComarcal":"612303","ID":"id23059","Municipio":"Marmolejo"}},{"geometry":{"type":"Point","coordinates":[-3.96731694,37.72361102,751.0]},"type":"Feature","properties":{"diVien":"O","viVien":15.0,"znaComarcal":"612303","ID":"id23060","Municipio":"Martos"}},{"geometry":{"type":"Point","coordinates":[-3.80877666,37.96833038,323.0]},"type":"Feature","properties":{"diVien":"E","viVien":13.0,"znaComarcal":"612303","ID":"id23061","Municipio":"Mengíbar"}},{"geometry":{"type":"Point","coordinates":[-3.10408365,38.34266748,644.0]},"type":"Feature","properties":{"diVien":"E","viVien":17.0,"znaComarcal":"612301","ID":"id23062","Municipio":"Montizón"}},{"geometry":{"type":"Point","coordinates":[-3.31556715,38.18386443,654.0]},"type":"Feature","properties":{"diVien":"E","viVien":14.0,"znaComarcal":"612301","ID":"id23063","Municipio":"Navas de San Juan"}},{"geometry":{"type":"Point","coordinates":[-3.65363388,37.52893667,1084.0]},"type":"Feature","properties":{"diVien":"S","viVien":17.0,"znaComarcal":"612304","ID":"id23064","Municipio":"Noalejo"}},{"geometry":{"type":"Point","coordinates":[-4.1843202,37.86967238,471.0]},"type":"Feature","properties":{"diVien":"O","viVien":18.0,"znaComarcal":"612303","ID":"id23069","Municipio":"Porcuna"}},{"geometry":{"type":"Point","coordinates":[-2.93451693,37.70555969,873.0]},"type":"Feature","properties":{"diVien":"SE","viVien":20.0,"znaComarcal":"612302","ID":"id23070","Municipio":"Pozo Alcón"}},{"geometry":{"type":"Point","coordinates":[-2.73825218,38.34876359,585.0]},"type":"Feature","properties":{"diVien":"NE","viVien":10.0,"znaComarcal":"612302","ID":"id23072","Municipio":"Puerta de Segura, La"}},{"geometry":{"type":"Point","coordinates":[-3.06778027,37.84747175,677.0]},"type":"Feature","properties":{"diVien":"E","viVien":5.0,"znaComarcal":"612302","ID":"id23073","Municipio":"Quesada"}},{"geometry":{"type":"Point","coordinates":[-3.53912249,38.33835156,741.0]},"type":"Feature","properties":{"diVien":"E","viVien":9.0,"znaComarcal":"612301","ID":"id23076","Municipio":"Santa Elena"}},{"geometry":{"type":"Point","coordinates":[-4.1704972,37.75328664,385.0]},"type":"Feature","properties":{"diVien":"O","viVien":21.0,"znaComarcal":"612303","ID":"id23077","Municipio":"Santiago de Calatrava"}},{"geometry":{"type":"Point","coordinates":[-3.10189147,38.02859203,457.0]},"type":"Feature","properties":{"diVien":"NE","viVien":13.0,"znaComarcal":"612302","ID":"id23080","Municipio":"Santo Tomé"}},{"geometry":{"type":"Point","coordinates":[-2.6520456,38.29809816,1108.0]},"type":"Feature","properties":{"diVien":"E","viVien":16.0,"znaComarcal":"612302","ID":"id23081","Municipio":"Segura de la Sierra"}},{"geometry":{"type":"Point","coordinates":[-3.63681227,37.99630661,332.0]},"type":"Feature","properties":{"diVien":"E","viVien":14.0,"znaComarcal":"612303","ID":"id23085","Municipio":"Torreblascopedro"}},{"geometry":{"type":"Point","coordinates":[-3.28685384,38.03342782,756.0]},"type":"Feature","properties":{"diVien":"NE","viVien":10.0,"znaComarcal":"612303","ID":"id23088","Municipio":"Torreperogil"}},{"geometry":{"type":"Point","coordinates":[-3.3711916,38.01149823,750.0]},"type":"Feature","properties":{"diVien":"NE","viVien":13.0,"znaComarcal":"612303","ID":"id23092","Municipio":"Úbeda"}},{"geometry":{"type":"Point","coordinates":[-3.81968511,37.59079444,923.0]},"type":"Feature","properties":{"diVien":"O","viVien":9.0,"znaComarcal":"612304","ID":"id23093","Municipio":"Valdepeñas de Jaén"}},{"geometry":{"type":"Point","coordinates":[-3.50741052,38.20444294,545.0]},"type":"Feature","properties":{"diVien":"E","viVien":17.0,"znaComarcal":"612301","ID":"id23094","Municipio":"Vilches"}},{"geometry":{"type":"Point","coordinates":[-3.08623926,38.10893521,824.0]},"type":"Feature","properties":{"diVien":"NE","viVien":12.0,"znaComarcal":"612302","ID":"id23095","Municipio":"Villacarrillo"}},{"geometry":{"type":"Point","coordinates":[-3.0118661,38.16962851,687.0]},"type":"Feature","properties":{"diVien":"NE","viVien":11.0,"znaComarcal":"612302","ID":"id23097","Municipio":"Villanueva del Arzobispo"}},{"geometry":{"type":"Point","coordinates":[-2.63544201,38.48582539,875.0]},"type":"Feature","properties":{"diVien":"E","viVien":11.0,"znaComarcal":"612302","ID":"id23101","Municipio":"Villarrodrigo"}},{"geometry":{"type":"Point","coordinates":[-2.55068654,38.11250153,1324.0]},"type":"Feature","properties":{"diVien":"E","viVien":9.0,"znaComarcal":"612302","ID":"id23904","Municipio":"Santiago de la Espada"}},{"geometry":{"type":"Point","coordinates":[-2.89316834,38.32105086,540.0]},"type":"Feature","properties":{"diVien":"E","viVien":21.0,"znaComarcal":"612302","ID":"id23905","Municipio":"Arroyo del Ojanco"}},{"geometry":{"type":"Point","coordinates":[-4.66026922,37.2094587,433.0]},"type":"Feature","properties":{"diVien":"S","viVien":25.0,"znaComarcal":"612901","ID":"id29001","Municipio":"Alameda"}},{"geometry":{"type":"Point","coordinates":[-4.25967244,36.99507375,887.0]},"type":"Feature","properties":{"diVien":"S","viVien":10.0,"znaComarcal":"612904","ID":"id29003","Municipio":"Alfarnate"}},{"geometry":{"type":"Point","coordinates":[-4.2160806,36.80892882,228.0]},"type":"Feature","properties":{"diVien":"S","viVien":9.0,"znaComarcal":"612904","ID":"id29009","Municipio":"Almáchar"}},{"geometry":{"type":"Point","coordinates":[-4.54115435,36.82473079,364.0]},"type":"Feature","properties":{"diVien":"S","viVien":11.0,"znaComarcal":"612903","ID":"id29011","Municipio":"Almogía"}},{"geometry":{"type":"Point","coordinates":[-4.70685543,36.82063001,196.0]},"type":"Feature","properties":{"diVien":"SE","viVien":14.0,"znaComarcal":"612903","ID":"id29012","Municipio":"Álora"}},{"geometry":{"type":"Point","coordinates":[-4.55804451,37.0142215,570.0]},"type":"Feature","properties":{"diVien":"S","viVien":32.0,"znaComarcal":"612901","ID":"id29015","Municipio":"Antequera"}},{"geometry":{"type":"Point","coordinates":[-4.39031416,37.09717349,722.0]},"type":"Feature","properties":{"diVien":"S","viVien":19.0,"znaComarcal":"612901","ID":"id29017","Municipio":"Archidona"}},{"geometry":{"type":"Point","coordinates":[-4.84547635,36.87640909,452.0]},"type":"Feature","properties":{"diVien":"SE","viVien":20.0,"znaComarcal":"612902","ID":"id29018","Municipio":"Ardales"}},{"geometry":{"type":"Point","coordinates":[-5.14178234,36.79859734,597.0]},"type":"Feature","properties":{"diVien":"SE","viVien":12.0,"znaComarcal":"612902","ID":"id29020","Municipio":"Arriate"}},{"geometry":{"type":"Point","coordinates":[-5.04654321,36.52379908,181.0]},"type":"Feature","properties":{"diVien":"E","viVien":9.0,"znaComarcal":"612903","ID":"id29023","Municipio":"Benahavís"}},{"geometry":{"type":"Point","coordinates":[-4.57241989,36.59306145,243.0]},"type":"Feature","properties":{"diVien":"SE","viVien":8.0,"znaComarcal":"612903","ID":"id29025","Municipio":"Benalmádena"}},{"geometry":{"type":"Point","coordinates":[-5.25372291,36.71871118,576.0]},"type":"Feature","properties":{"diVien":"SO","viVien":11.0,"znaComarcal":"612902","ID":"id29028","Municipio":"Benaoján"}},{"geometry":{"type":"Point","coordinates":[-4.94538626,36.78802751,590.0]},"type":"Feature","properties":{"diVien":"S","viVien":12.0,"znaComarcal":"612902","ID":"id29031","Municipio":"Burgo, El"}},{"geometry":{"type":"Point","coordinates":[-4.86223442,37.04734424,463.0]},"type":"Feature","properties":{"diVien":"S","viVien":25.0,"znaComarcal":"612901","ID":"id29032","Municipio":"Campillos"}},{"geometry":{"type":"Point","coordinates":[-4.08292336,36.87340554,648.0]},"type":"Feature","properties":{"diVien":"SO","viVien":6.0,"znaComarcal":"612904","ID":"id29033","Municipio":"Canillas de Aceituno"}},{"geometry":{"type":"Point","coordinates":[-5.02326403,36.95081213,743.0]},"type":"Feature","properties":{"diVien":"SE","viVien":19.0,"znaComarcal":"612901","ID":"id29035","Municipio":"Cañete la Real"}},{"geometry":{"type":"Point","coordinates":[-4.63171653,36.71005782,108.0]},"type":"Feature","properties":{"diVien":"E","viVien":12.0,"znaComarcal":"612903","ID":"id29038","Municipio":"Cártama"}},{"geometry":{"type":"Point","coordinates":[-4.42957972,36.89392649,544.0]},"type":"Feature","properties":{"diVien":"SE","viVien":7.0,"znaComarcal":"612904","ID":"id29039","Municipio":"Casabermeja"}},{"geometry":{"type":"Point","coordinates":[-4.84309805,36.78480634,495.0]},"type":"Feature","properties":{"diVien":"SE","viVien":9.0,"znaComarcal":"612903","ID":"id29040","Municipio":"Casarabonela"}},{"geometry":{"type":"Point","coordinates":[-5.27383141,36.44276754,421.0]},"type":"Feature","properties":{"diVien":"E","viVien":21.0,"znaComarcal":"612903","ID":"id29041","Municipio":"Casares"}},{"geometry":{"type":"Point","coordinates":[-4.75958685,36.65987005,206.0]},"type":"Feature","properties":{"diVien":"SE","viVien":9.0,"znaComarcal":"612903","ID":"id29042","Municipio":"Coín"}},{"geometry":{"type":"Point","coordinates":[-4.33648163,36.90317629,692.0]},"type":"Feature","properties":{"diVien":"SE","viVien":8.0,"znaComarcal":"612904","ID":"id29043","Municipio":"Colmenar"}},{"geometry":{"type":"Point","coordinates":[-4.24638382,36.84982769,714.0]},"type":"Feature","properties":{"diVien":"SE","viVien":9.0,"znaComarcal":"612904","ID":"id29044","Municipio":"Comares"}},{"geometry":{"type":"Point","coordinates":[-3.9748181,36.83280321,620.0]},"type":"Feature","properties":{"diVien":"S","viVien":4.0,"znaComarcal":"612904","ID":"id29045","Municipio":"Cómpeta"}},{"geometry":{"type":"Point","coordinates":[-5.34243171,36.61781253,624.0]},"type":"Feature","properties":{"diVien":"E","viVien":5.0,"znaComarcal":"612902","ID":"id29046","Municipio":"Cortes de la Frontera"}},{"geometry":{"type":"Point","coordinates":[-5.04657706,36.87520846,736.0]},"type":"Feature","properties":{"diVien":"SE","viVien":22.0,"znaComarcal":"612902","ID":"id29048","Municipio":"Cuevas del Becerro"}},{"geometry":{"type":"Point","coordinates":[-4.41410228,37.26765901,422.0]},"type":"Feature","properties":{"diVien":"S","viVien":16.0,"znaComarcal":"612901","ID":"id29049","Municipio":"Cuevas de San Marcos"}},{"geometry":{"type":"Point","coordinates":[-5.1463572,36.42657668,14.0]},"type":"Feature","properties":{"diVien":"E","viVien":10.0,"znaComarcal":"612903","ID":"id29051","Municipio":"Estepona"}},{"geometry":{"type":"Point","coordinates":[-3.89875687,36.79299972,315.0]},"type":"Feature","properties":{"diVien":"S","viVien":3.0,"znaComarcal":"612904","ID":"id29053","Municipio":"Frigiliana"}},{"geometry":{"type":"Point","coordinates":[-4.62378308,36.53902839,6.0]},"type":"Feature","properties":{"diVien":"E","viVien":7.0,"znaComarcal":"612903","ID":"id29054","Municipio":"Fuengirola"}},{"geometry":{"type":"Point","coordinates":[-4.73195066,37.1355092,442.0]},"type":"Feature","properties":{"diVien":"S","viVien":21.0,"znaComarcal":"612901","ID":"id29055","Municipio":"Fuente de Piedra"}},{"geometry":{"type":"Point","coordinates":[-5.3148786,36.51729026,625.0]},"type":"Feature","properties":{"diVien":"S","viVien":11.0,"znaComarcal":"612902","ID":"id29056","Municipio":"Gaucín"}},{"geometry":{"type":"Point","coordinates":[-4.9497999,36.58218716,301.0]},"type":"Feature","properties":{"diVien":"O","viVien":3.0,"znaComarcal":"612903","ID":"id29061","Municipio":"Istán"}},{"geometry":{"type":"Point","coordinates":[-5.2150682,36.56447517,555.0]},"type":"Feature","properties":{"diVien":"E","viVien":10.0,"znaComarcal":"612902","ID":"id29064","Municipio":"Jubrique"}},{"geometry":{"type":"Point","coordinates":[-4.41997511,36.72034267,8.0]},"type":"Feature","properties":{"diVien":"SE","viVien":3.0,"znaComarcal":"612903","ID":"id29067","Municipio":"Málaga"}},{"geometry":{"type":"Point","coordinates":[-5.2505015,36.37770216,140.0]},"type":"Feature","properties":{"diVien":"E","viVien":14.0,"znaComarcal":"612903","ID":"id29068","Municipio":"Manilva"}},{"geometry":{"type":"Point","coordinates":[-4.88406637,36.50963847,18.0]},"type":"Feature","properties":{"diVien":"SE","viVien":14.0,"znaComarcal":"612903","ID":"id29069","Municipio":"Marbella"}},{"geometry":{"type":"Point","coordinates":[-4.63902803,36.59339039,430.0]},"type":"Feature","properties":{"diVien":"E","viVien":4.0,"znaComarcal":"612903","ID":"id29070","Municipio":"Mijas"}},{"geometry":{"type":"Point","coordinates":[-3.87667655,36.74484684,20.0]},"type":"Feature","properties":{"diVien":"SE","viVien":4.0,"znaComarcal":"612904","ID":"id29075","Municipio":"Nerja"}},{"geometry":{"type":"Point","coordinates":[-4.85596352,36.56395395,306.0]},"type":"Feature","properties":{"diVien":"E","viVien":8.0,"znaComarcal":"612903","ID":"id29076","Municipio":"Ojén"}},{"geometry":{"type":"Point","coordinates":[-5.14938232,36.61292429,769.0]},"type":"Feature","properties":{"diVien":"S","viVien":5.0,"znaComarcal":"612902","ID":"id29081","Municipio":"Pujerra"}},{"geometry":{"type":"Point","coordinates":[-4.29230385,36.71634307,12.0]},"type":"Feature","properties":{"diVien":"SE","viVien":9.0,"znaComarcal":"612904","ID":"id29082","Municipio":"Rincón de la Victoria"}},{"geometry":{"type":"Point","coordinates":[-5.1654186,36.73725905,729.0]},"type":"Feature","properties":{"diVien":"SE","viVien":13.0,"znaComarcal":"612902","ID":"id29084","Municipio":"Ronda"}},{"geometry":{"type":"Point","coordinates":[-4.92158172,36.98132441,559.0]},"type":"Feature","properties":{"diVien":"SE","viVien":20.0,"znaComarcal":"612901","ID":"id29089","Municipio":"Teba"}},{"geometry":{"type":"Point","coordinates":[-4.90449425,36.68777428,313.0]},"type":"Feature","properties":{"diVien":"SE","viVien":7.0,"znaComarcal":"612903","ID":"id29090","Municipio":"Tolox"}},{"geometry":{"type":"Point","coordinates":[-3.95292767,36.75862084,147.0]},"type":"Feature","properties":{"diVien":"E","viVien":6.0,"znaComarcal":"612904","ID":"id29091","Municipio":"Torrox"}},{"geometry":{"type":"Point","coordinates":[-4.10210923,36.7827081,64.0]},"type":"Feature","properties":{"diVien":"S","viVien":8.0,"znaComarcal":"612904","ID":"id29094","Municipio":"Vélez-Málaga"}},{"geometry":{"type":"Point","coordinates":[-4.45078097,37.18660129,540.0]},"type":"Feature","properties":{"diVien":"S","viVien":22.0,"znaComarcal":"612901","ID":"id29095","Municipio":"Villanueva de Algaidas"}},{"geometry":{"type":"Point","coordinates":[-4.36394556,36.99699553,699.0]},"type":"Feature","properties":{"diVien":"S","viVien":20.0,"znaComarcal":"612901","ID":"id29096","Municipio":"Villanueva del Rosario"}},{"geometry":{"type":"Point","coordinates":[-4.14096034,36.86183832,150.0]},"type":"Feature","properties":{"diVien":"S","viVien":6.0,"znaComarcal":"612904","ID":"id29099","Municipio":"Viñuela"}},{"geometry":{"type":"Point","coordinates":[-4.49759729,36.62118405,43.0]},"type":"Feature","properties":{"diVien":"SE","viVien":5.0,"znaComarcal":"612903","ID":"id29901","Municipio":"Torremolinos"}},{"geometry":{"type":"Point","coordinates":[-4.53056286,36.92952633,586.0]},"type":"Feature","properties":{"diVien":"S","viVien":12.0,"znaComarcal":"612901","ID":"id29902","Municipio":"Villanueva de la Concepción"}},{"geometry":{"type":"Point","coordinates":[-5.71549984,38.03730155,673.0]},"type":"Feature","properties":{"diVien":"NO","viVien":13.0,"znaComarcal":"614101","ID":"id41002","Municipio":"Alanís"}},{"geometry":{"type":"Point","coordinates":[-5.85065057,37.33466457,43.0]},"type":"Feature","properties":{"diVien":"O","viVien":23.0,"znaComarcal":"614102","ID":"id41004","Municipio":"Alcalá de Guadaíra"}},{"geometry":{"type":"Point","coordinates":[-6.07957572,37.87353684,450.0]},"type":"Feature","properties":{"diVien":"S","viVien":11.0,"znaComarcal":"614101","ID":"id41009","Municipio":"Almadén de la Plata"}},{"geometry":{"type":"Point","coordinates":[-5.54476269,37.26265472,114.0]},"type":"Feature","properties":{"diVien":"O","viVien":23.0,"znaComarcal":"614102","ID":"id41011","Municipio":"Arahal"}},{"geometry":{"type":"Point","coordinates":[-6.26869637,37.52281812,140.0]},"type":"Feature","properties":{"diVien":"SO","viVien":23.0,"znaComarcal":"614102","ID":"id41013","Municipio":"Aznalcóllar"}},{"geometry":{"type":"Point","coordinates":[-4.67235965,37.30789829,234.0]},"type":"Feature","properties":{"diVien":"S","viVien":23.0,"znaComarcal":"614103","ID":"id41014","Municipio":"Badolatosa"}},{"geometry":{"type":"Point","coordinates":[-5.96677775,37.58682997,88.0]},"type":"Feature","properties":{"diVien":"O","viVien":28.0,"znaComarcal":"614102","ID":"id41019","Municipio":"Burguillos"}},{"geometry":{"type":"Point","coordinates":[-5.94075872,36.98079112,72.0]},"type":"Feature","properties":{"diVien":"S","viVien":15.0,"znaComarcal":"614102","ID":"id41020","Municipio":"Cabezas de San Juan, Las"}},{"geometry":{"type":"Point","coordinates":[-5.63324752,37.47265463,249.0]},"type":"Feature","properties":{"diVien":"O","viVien":26.0,"znaComarcal":"614102","ID":"id41024","Municipio":"Carmona"}},{"geometry":{"type":"Point","coordinates":[-5.98933717,37.67485787,328.0]},"type":"Feature","properties":{"diVien":"SO","viVien":26.0,"znaComarcal":"614101","ID":"id41027","Municipio":"Castilblanco de los Arroyos"}},{"geometry":{"type":"Point","coordinates":[-6.31338511,37.69171662,349.0]},"type":"Feature","properties":{"diVien":"SO","viVien":25.0,"znaComarcal":"614101","ID":"id41031","Municipio":"Castillo de las Guardas, El"}},{"geometry":{"type":"Point","coordinates":[-5.75874061,37.92926967,588.0]},"type":"Feature","properties":{"diVien":"SO","viVien":8.0,"znaComarcal":"614101","ID":"id41032","Municipio":"Cazalla de la Sierra"}},{"geometry":{"type":"Point","coordinates":[-5.62009557,37.87292437,553.0]},"type":"Feature","properties":{"diVien":"S","viVien":14.0,"znaComarcal":"614101","ID":"id41033","Municipio":"Constantina"}},{"geometry":{"type":"Point","coordinates":[-6.05111441,37.28383805,7.0]},"type":"Feature","properties":{"diVien":"O","viVien":21.0,"znaComarcal":"614102","ID":"id41034","Municipio":"Coria del Río"}},{"geometry":{"type":"Point","coordinates":[-5.63458688,37.08163152,133.0]},"type":"Feature","properties":{"diVien":"SO","viVien":18.0,"znaComarcal":"614102","ID":"id41036","Municipio":"Coronil, El"}},{"geometry":{"type":"Point","coordinates":[-5.91334407,37.28894862,52.0]},"type":"Feature","properties":{"diVien":"O","viVien":23.0,"znaComarcal":"614102","ID":"id41038","Municipio":"Dos Hermanas"}},{"geometry":{"type":"Point","coordinates":[-5.07543598,37.54077247,106.0]},"type":"Feature","properties":{"diVien":"S","viVien":22.0,"znaComarcal":"614102","ID":"id41039","Municipio":"Écija"}},{"geometry":{"type":"Point","coordinates":[-6.12488688,37.38262852,129.0]},"type":"Feature","properties":{"diVien":"O","viVien":21.0,"znaComarcal":"614102","ID":"id41040","Municipio":"Espartinas"}},{"geometry":{"type":"Point","coordinates":[-4.8765968,37.28845167,601.0]},"type":"Feature","properties":{"diVien":"S","viVien":24.0,"znaComarcal":"614103","ID":"id41041","Municipio":"Estepa"}},{"geometry":{"type":"Point","coordinates":[-5.34761743,37.46271648,180.0]},"type":"Feature","properties":{"diVien":"SE","viVien":23.0,"znaComarcal":"614102","ID":"id41042","Municipio":"Fuentes de Andalucía"}},{"geometry":{"type":"Point","coordinates":[-6.1582894,37.52460734,97.0]},"type":"Feature","properties":{"diVien":"O","viVien":27.0,"znaComarcal":"614102","ID":"id41045","Municipio":"Gerena"}},{"geometry":{"type":"Point","coordinates":[-5.8214626,38.09225368,663.0]},"type":"Feature","properties":{"diVien":"N","viVien":11.0,"znaComarcal":"614101","ID":"id41048","Municipio":"Guadalcanal"}},{"geometry":{"type":"Point","coordinates":[-4.84797484,37.36666181,250.0]},"type":"Feature","properties":{"diVien":"S","viVien":23.0,"znaComarcal":"614103","ID":"id41050","Municipio":"Herrera"}},{"geometry":{"type":"Point","coordinates":[-5.22361172,37.35347559,152.0]},"type":"Feature","properties":{"diVien":"S","viVien":21.0,"znaComarcal":"614102","ID":"id41052","Municipio":"Lantejuela"}},{"geometry":{"type":"Point","coordinates":[-6.08085356,36.91958656,36.0]},"type":"Feature","properties":{"diVien":"O","viVien":17.0,"znaComarcal":"614102","ID":"id41053","Municipio":"Lebrija"}},{"geometry":{"type":"Point","coordinates":[-5.53035872,37.65333439,37.0]},"type":"Feature","properties":{"diVien":"O","viVien":10.0,"znaComarcal":"614102","ID":"id41055","Municipio":"Lora del Río"}},{"geometry":{"type":"Point","coordinates":[-5.41641222,37.33366244,140.0]},"type":"Feature","properties":{"diVien":"O","viVien":21.0,"znaComarcal":"614102","ID":"id41060","Municipio":"Marchena"}},{"geometry":{"type":"Point","coordinates":[-5.57079248,36.99536489,269.0]},"type":"Feature","properties":{"diVien":"SO","viVien":13.0,"znaComarcal":"614102","ID":"id41064","Municipio":"Montellano"}},{"geometry":{"type":"Point","coordinates":[-5.44898927,37.12022462,293.0]},"type":"Feature","properties":{"diVien":"SO","viVien":20.0,"znaComarcal":"614102","ID":"id41065","Municipio":"Morón de la Frontera"}},{"geometry":{"type":"Point","coordinates":[-5.46503688,37.93337755,431.0]},"type":"Feature","properties":{"diVien":"S","viVien":13.0,"znaComarcal":"614101","ID":"id41066","Municipio":"Navas de la Concepción, Las"}},{"geometry":{"type":"Point","coordinates":[-5.10120623,37.23757134,322.0]},"type":"Feature","properties":{"diVien":"S","viVien":28.0,"znaComarcal":"614102","ID":"id41068","Municipio":"Osuna"}},{"geometry":{"type":"Point","coordinates":[-5.9277983,37.15743949,8.0]},"type":"Feature","properties":{"diVien":"O","viVien":21.0,"znaComarcal":"614102","ID":"id41069","Municipio":"Palacios y Villafranca, Los"}},{"geometry":{"type":"Point","coordinates":[-4.89550627,37.22335024,457.0]},"type":"Feature","properties":{"diVien":"S","viVien":31.0,"znaComarcal":"614103","ID":"id41072","Municipio":"Pedrera"}},{"geometry":{"type":"Point","coordinates":[-5.76365409,37.84258191,413.0]},"type":"Feature","properties":{"diVien":"S","viVien":16.0,"znaComarcal":"614101","ID":"id41073","Municipio":"Pedroso, El"}},{"geometry":{"type":"Point","coordinates":[-5.22174386,36.97277038,546.0]},"type":"Feature","properties":{"diVien":"SE","viVien":18.0,"znaComarcal":"614103","ID":"id41076","Municipio":"Pruna"}},{"geometry":{"type":"Point","coordinates":[-5.38773209,37.77879083,231.0]},"type":"Feature","properties":{"diVien":"S","viVien":20.0,"znaComarcal":"614101","ID":"id41078","Municipio":"Puebla de los Infantes, La"}},{"geometry":{"type":"Point","coordinates":[-6.15594208,37.95068934,459.0]},"type":"Feature","properties":{"diVien":"N","viVien":14.0,"znaComarcal":"614101","ID":"id41080","Municipio":"Real de la Jara, El"}},{"geometry":{"type":"Point","coordinates":[-4.7797279,37.19940589,405.0]},"type":"Feature","properties":{"diVien":"S","viVien":24.0,"znaComarcal":"614103","ID":"id41082","Municipio":"Roda de Andalucía, La"}},{"geometry":{"type":"Point","coordinates":[-6.17850596,37.7251992,334.0]},"type":"Feature","properties":{"diVien":"SO","viVien":22.0,"znaComarcal":"614101","ID":"id41083","Municipio":"Ronquillo, El"}},{"geometry":{"type":"Point","coordinates":[-5.09744762,37.07107032,532.0]},"type":"Feature","properties":{"diVien":"SE","viVien":23.0,"znaComarcal":"614103","ID":"id41090","Municipio":"Saucejo, El"}},{"geometry":{"type":"Point","coordinates":[-5.99251368,37.38620512,11.0]},"type":"Feature","properties":{"diVien":"SO","viVien":23.0,"znaComarcal":"614102","ID":"id41091","Municipio":"Sevilla"}},{"geometry":{"type":"Point","coordinates":[-5.78089198,37.17935222,49.0]},"type":"Feature","properties":{"diVien":"O","viVien":22.0,"znaComarcal":"614102","ID":"id41095","Municipio":"Utrera"}},{"geometry":{"type":"Point","coordinates":[-6.16284896,37.13384448,4.0]},"type":"Feature","properties":{"diVien":"O","viVien":20.0,"znaComarcal":"614102","ID":"id41902","Municipio":"Isla Mayor"}}]}