{"type":"FeatureCollection","features":[{"geometry":{"type":"Point","coordinates":[-1.85574745,38.99588053,681.0]},"type":"Feature","properties":{"znaComarcal":"680201","ID":"id02003","Municipio":"Albacete","cPrecp":"0.1"}},{"geometry":{"type":"Point","coordinates":[-2.49034957,38.66425104,953.0]},"type":"Feature","properties":{"znaComarcal":"680202","ID":"id02008","Municipio":"Alcaraz","cPrecp":"0.1"}},{"geometry":{"type":"Point","coordinates":[-1.09414681,38.86968811,687.0]},"type":"Feature","properties":{"znaComarcal":"680203","ID":"id02009","Municipio":"Almansa","cPrecp":"0.3"}},{"geometry":{"type":"Point","coordinates":[-1.23080245,38.95969094,852.0]},"type":"Feature","properties":{"znaComarcal":"680203","ID":"id02010","Municipio":"Alpera","cPrecp":"0.5"}},{"geometry":{"type":"Point","coordinates":[-2.20045637,39.0456106,733.0]},"type":"Feature","properties":{"znaComarcal":"680201","ID":"id02015","Municipio":"Barrax","cPrecp":"0.1"}},{"geometry":{"type":"Point","coordinates":[-2.21253636,38.58025427,844.0]},"type":"Feature","properties":{"znaComarcal":"680202","ID":"id02017","Municipio":"Bogarra","cPrecp":""}},{"geometry":{"type":"Point","coordinates":[-2.54023691,38.95012362,1062.0]},"type":"Feature","properties":{"znaComarcal":"680201","ID":"id02019","Municipio":"Bonillo, El","cPrecp":""}},{"geometry":{"type":"Point","coordinates":[-1.30876708,39.10231176,911.0]},"type":"Feature","properties":{"znaComarcal":"680201","ID":"id02020","Municipio":"Carcelén","cPrecp":"0.1"}},{"geometry":{"type":"Point","coordinates":[-1.33454992,39.25946122,707.0]},"type":"Feature","properties":{"znaComarcal":"680201","ID":"id02023","Municipio":"Casas de Ves","cPrecp":"0.1"}},{"geometry":{"type":"Point","coordinates":[-1.47129143,39.28701686,708.0]},"type":"Feature","properties":{"znaComarcal":"680201","ID":"id02024","Municipio":"Casas-Ibáñez","cPrecp":""}},{"geometry":{"type":"Point","coordinates":[-0.9886912,38.70573009,554.0]},"type":"Feature","properties":{"znaComarcal":"680203","ID":"id02025","Municipio":"Caudete","cPrecp":""}},{"geometry":{"type":"Point","coordinates":[-1.66113349,39.30332101,706.0]},"type":"Feature","properties":{"znaComarcal":"680201","ID":"id02026","Municipio":"Cenizate","cPrecp":""}},{"geometry":{"type":"Point","coordinates":[-1.72602643,38.9210968,907.0]},"type":"Feature","properties":{"znaComarcal":"680201","ID":"id02029","Municipio":"Chinchilla de Monte-Aragón","cPrecp":"0.1"}},{"geometry":{"type":"Point","coordinates":[-2.04781376,38.44790893,630.0]},"type":"Feature","properties":{"znaComarcal":"680202","ID":"id02030","Municipio":"Elche de la Sierra","cPrecp":""}},{"geometry":{"type":"Point","coordinates":[-1.99784496,39.11387916,691.0]},"type":"Feature","properties":{"znaComarcal":"680201","ID":"id02035","Municipio":"Gineta, La","cPrecp":"0.1"}},{"geometry":{"type":"Point","coordinates":[-1.70344921,38.51218953,570.0]},"type":"Feature","properties":{"znaComarcal":"680203","ID":"id02037","Municipio":"Hellín","cPrecp":""}},{"geometry":{"type":"Point","coordinates":[-2.12637236,38.9621774,714.0]},"type":"Feature","properties":{"znaComarcal":"680201","ID":"id02038","Municipio":"Herrera, La","cPrecp":"0.1"}},{"geometry":{"type":"Point","coordinates":[-1.44535609,38.96455026,1041.0]},"type":"Feature","properties":{"znaComarcal":"680203","ID":"id02039","Municipio":"Higueruela","cPrecp":"0.3"}},{"geometry":{"type":"Point","coordinates":[-1.52061391,39.17457441,624.0]},"type":"Feature","properties":{"znaComarcal":"680201","ID":"id02041","Municipio":"Jorquera","cPrecp":"0.1"}},{"geometry":{"type":"Point","coordinates":[-2.10096881,38.36632081,735.0]},"type":"Feature","properties":{"znaComarcal":"680202","ID":"id02042","Municipio":"Letur","cPrecp":""}},{"geometry":{"type":"Point","coordinates":[-2.35387427,38.94878996,913.0]},"type":"Feature","properties":{"znaComarcal":"680201","ID":"id02043","Municipio":"Lezuza","cPrecp":"0.1"}},{"geometry":{"type":"Point","coordinates":[-1.95479319,38.54083745,641.0]},"type":"Feature","properties":{"znaComarcal":"680202","ID":"id02044","Municipio":"Liétor","cPrecp":""}},{"geometry":{"type":"Point","coordinates":[-1.7997012,39.23680339,688.0]},"type":"Feature","properties":{"znaComarcal":"680201","ID":"id02045","Municipio":"Madrigueras","cPrecp":"0.1"}},{"geometry":{"type":"Point","coordinates":[-2.31511768,38.71877813,1108.0]},"type":"Feature","properties":{"znaComarcal":"680202","ID":"id02047","Municipio":"Masegoso","cPrecp":"0.1"}},{"geometry":{"type":"Point","coordinates":[-2.31961973,39.27118701,723.0]},"type":"Feature","properties":{"znaComarcal":"680201","ID":"id02048","Municipio":"Minaya","cPrecp":"0.1"}},{"geometry":{"type":"Point","coordinates":[-2.23898151,38.46778179,851.0]},"type":"Feature","properties":{"znaComarcal":"680202","ID":"id02049","Municipio":"Molinicos","cPrecp":"0.1"}},{"geometry":{"type":"Point","coordinates":[-1.32487672,38.78717469,810.0]},"type":"Feature","properties":{"znaComarcal":"680203","ID":"id02051","Municipio":"Montealegre del Castillo","cPrecp":"0.1"}},{"geometry":{"type":"Point","coordinates":[-2.4830388,39.03954575,929.0]},"type":"Feature","properties":{"znaComarcal":"680201","ID":"id02053","Municipio":"Munera","cPrecp":"0.1"}},{"geometry":{"type":"Point","coordinates":[-2.30224029,38.14824043,1085.0]},"type":"Feature","properties":{"znaComarcal":"680202","ID":"id02055","Municipio":"Nerpio","cPrecp":""}},{"geometry":{"type":"Point","coordinates":[-1.49888166,38.61472661,653.0]},"type":"Feature","properties":{"znaComarcal":"680203","ID":"id02056","Municipio":"Ontur","cPrecp":""}},{"geometry":{"type":"Point","coordinates":[-2.74272664,38.96201035,898.0]},"type":"Feature","properties":{"znaComarcal":"680201","ID":"id02057","Municipio":"Ossa de Montiel","cPrecp":""}},{"geometry":{"type":"Point","coordinates":[-2.00212787,38.72688881,1010.0]},"type":"Feature","properties":{"znaComarcal":"680202","ID":"id02060","Municipio":"Peñas de San Pedro","cPrecp":""}},{"geometry":{"type":"Point","coordinates":[-1.55549981,38.82629814,870.0]},"type":"Feature","properties":{"znaComarcal":"680203","ID":"id02061","Municipio":"Pétrola","cPrecp":"0.1"}},{"geometry":{"type":"Point","coordinates":[-1.91133356,38.721122,871.0]},"type":"Feature","properties":{"znaComarcal":"680203","ID":"id02063","Municipio":"Pozohondo","cPrecp":"0.1"}},{"geometry":{"type":"Point","coordinates":[-1.50647855,39.07663024,769.0]},"type":"Feature","properties":{"znaComarcal":"680201","ID":"id02064","Municipio":"Pozo-Lorente","cPrecp":"0.1"}},{"geometry":{"type":"Point","coordinates":[-2.41839311,38.4998099,1126.0]},"type":"Feature","properties":{"znaComarcal":"680202","ID":"id02067","Municipio":"Riópar","cPrecp":""}},{"geometry":{"type":"Point","coordinates":[-2.15924796,39.20706504,708.0]},"type":"Feature","properties":{"znaComarcal":"680201","ID":"id02069","Municipio":"Roda, La","cPrecp":"0.1"}},{"geometry":{"type":"Point","coordinates":[-2.186211,38.82654004,844.0]},"type":"Feature","properties":{"znaComarcal":"680201","ID":"id02071","Municipio":"San Pedro","cPrecp":""}},{"geometry":{"type":"Point","coordinates":[-1.98469065,38.33202632,734.0]},"type":"Feature","properties":{"znaComarcal":"680202","ID":"id02072","Municipio":"Socovos","cPrecp":""}},{"geometry":{"type":"Point","coordinates":[-1.91280979,39.26539647,713.0]},"type":"Feature","properties":{"znaComarcal":"680201","ID":"id02073","Municipio":"Tarazona de la Mancha","cPrecp":"0.1"}},{"geometry":{"type":"Point","coordinates":[-1.69282296,38.5922733,652.0]},"type":"Feature","properties":{"znaComarcal":"680203","ID":"id02074","Municipio":"Tobarra","cPrecp":""}},{"geometry":{"type":"Point","coordinates":[-1.67646922,39.13545152,667.0]},"type":"Feature","properties":{"znaComarcal":"680201","ID":"id02075","Municipio":"Valdeganga","cPrecp":"0.1"}},{"geometry":{"type":"Point","coordinates":[-2.63505947,38.57467359,837.0]},"type":"Feature","properties":{"znaComarcal":"680202","ID":"id02080","Municipio":"Villapalacios","cPrecp":"0.1"}},{"geometry":{"type":"Point","coordinates":[-2.60714311,39.26755792,728.0]},"type":"Feature","properties":{"znaComarcal":"680201","ID":"id02081","Municipio":"Villarrobledo","cPrecp":""}},{"geometry":{"type":"Point","coordinates":[-2.57590915,38.77363475,1012.0]},"type":"Feature","properties":{"znaComarcal":"680201","ID":"id02085","Municipio":"Viveros","cPrecp":""}},{"geometry":{"type":"Point","coordinates":[-2.31903072,38.36643865,878.0]},"type":"Feature","properties":{"znaComarcal":"680202","ID":"id02086","Municipio":"Yeste","cPrecp":""}},{"geometry":{"type":"Point","coordinates":[-1.73622317,38.801361,830.0]},"type":"Feature","properties":{"znaComarcal":"680201","ID":"id02901","Municipio":"Pozo Cañada","cPrecp":"0.1"}},{"geometry":{"type":"Point","coordinates":[-4.35762706,38.87961452,612.0]},"type":"Feature","properties":{"znaComarcal":"681303","ID":"id13001","Municipio":"Abenójar","cPrecp":""}},{"geometry":{"type":"Point","coordinates":[-4.87264671,38.97881558,569.0]},"type":"Feature","properties":{"znaComarcal":"681303","ID":"id13002","Municipio":"Agudo","cPrecp":""}},{"geometry":{"type":"Point","coordinates":[-4.79003492,38.67690477,446.0]},"type":"Feature","properties":{"znaComarcal":"681304","ID":"id13003","Municipio":"Alamillo","cPrecp":""}},{"geometry":{"type":"Point","coordinates":[-2.80484449,38.61923882,937.0]},"type":"Feature","properties":{"znaComarcal":"681302","ID":"id13004","Municipio":"Albaladejo","cPrecp":""}},{"geometry":{"type":"Point","coordinates":[-3.20565748,39.38878541,643.0]},"type":"Feature","properties":{"znaComarcal":"681302","ID":"id13005","Municipio":"Alcázar de San Juan","cPrecp":""}},{"geometry":{"type":"Point","coordinates":[-4.47679962,39.26111875,639.0]},"type":"Feature","properties":{"znaComarcal":"681301","ID":"id13006","Municipio":"Alcoba","cPrecp":""}},{"geometry":{"type":"Point","coordinates":[-3.05432597,38.89965302,860.0]},"type":"Feature","properties":{"znaComarcal":"681302","ID":"id13010","Municipio":"Alhambra","cPrecp":""}},{"geometry":{"type":"Point","coordinates":[-4.83969634,38.77570259,582.0]},"type":"Feature","properties":{"znaComarcal":"681304","ID":"id13011","Municipio":"Almadén","cPrecp":""}},{"geometry":{"type":"Point","coordinates":[-4.71219709,38.738893,523.0]},"type":"Feature","properties":{"znaComarcal":"681304","ID":"id13012","Municipio":"Almadenejos","cPrecp":""}},{"geometry":{"type":"Point","coordinates":[-3.71155855,38.88984134,646.0]},"type":"Feature","properties":{"znaComarcal":"681302","ID":"id13013","Municipio":"Almagro","cPrecp":""}},{"geometry":{"type":"Point","coordinates":[-3.49679815,38.5142644,802.0]},"type":"Feature","properties":{"znaComarcal":"681304","ID":"id13016","Municipio":"Almuradiel","cPrecp":""}},{"geometry":{"type":"Point","coordinates":[-4.83658844,39.47944668,549.0]},"type":"Feature","properties":{"znaComarcal":"681301","ID":"id13017","Municipio":"Anchuras","cPrecp":""}},{"geometry":{"type":"Point","coordinates":[-4.54340516,39.15348315,620.0]},"type":"Feature","properties":{"znaComarcal":"681301","ID":"id13021","Municipio":"Arroba de los Montes","cPrecp":""}},{"geometry":{"type":"Point","coordinates":[-3.94429108,38.83277318,663.0]},"type":"Feature","properties":{"znaComarcal":"681303","ID":"id13022","Municipio":"Ballesteros de Calatrava","cPrecp":""}},{"geometry":{"type":"Point","coordinates":[-4.29252775,38.65822758,729.0]},"type":"Feature","properties":{"znaComarcal":"681304","ID":"id13024","Municipio":"Brazatortas","cPrecp":"0.1"}},{"geometry":{"type":"Point","coordinates":[-3.7769987,38.70469055,648.0]},"type":"Feature","properties":{"znaComarcal":"681304","ID":"id13027","Municipio":"Calzada de Calatrava","cPrecp":""}},{"geometry":{"type":"Point","coordinates":[-3.81796049,39.01845534,618.0]},"type":"Feature","properties":{"znaComarcal":"681301","ID":"id13031","Municipio":"Carrión de Calatrava","cPrecp":""}},{"geometry":{"type":"Point","coordinates":[-3.27666164,38.53842056,824.0]},"type":"Feature","properties":{"znaComarcal":"681302","ID":"id13033","Municipio":"Castellar de Santiago","cPrecp":"0.1"}},{"geometry":{"type":"Point","coordinates":[-3.93131981,38.98651781,625.0]},"type":"Feature","properties":{"znaComarcal":"681303","ID":"id13034","Municipio":"Ciudad Real","cPrecp":""}},{"geometry":{"type":"Point","coordinates":[-4.05179917,39.31410216,777.0]},"type":"Feature","properties":{"znaComarcal":"681301","ID":"id13036","Municipio":"Cortijos, Los","cPrecp":""}},{"geometry":{"type":"Point","coordinates":[-3.07369013,38.66083487,858.0]},"type":"Feature","properties":{"znaComarcal":"681302","ID":"id13037","Municipio":"Cózar","cPrecp":"0.1"}},{"geometry":{"type":"Point","coordinates":[-3.61161625,39.06747719,621.0]},"type":"Feature","properties":{"znaComarcal":"681301","ID":"id13039","Municipio":"Daimiel","cPrecp":""}},{"geometry":{"type":"Point","coordinates":[-4.30518482,38.40486189,695.0]},"type":"Feature","properties":{"znaComarcal":"681304","ID":"id13042","Municipio":"Fuencaliente","cPrecp":"0.1"}},{"geometry":{"type":"Point","coordinates":[-4.64983274,39.32502193,593.0]},"type":"Feature","properties":{"znaComarcal":"681301","ID":"id13049","Municipio":"Horcajo de los Montes","cPrecp":""}},{"geometry":{"type":"Point","coordinates":[-4.29265552,38.98397728,542.0]},"type":"Feature","properties":{"znaComarcal":"681303","ID":"id13051","Municipio":"Luciana","cPrecp":""}},{"geometry":{"type":"Point","coordinates":[-3.85557682,39.16821801,639.0]},"type":"Feature","properties":{"znaComarcal":"681301","ID":"id13052","Municipio":"Malagón","cPrecp":""}},{"geometry":{"type":"Point","coordinates":[-3.37024316,38.99820392,658.0]},"type":"Feature","properties":{"znaComarcal":"681302","ID":"id13053","Municipio":"Manzanares","cPrecp":""}},{"geometry":{"type":"Point","coordinates":[-4.07119389,38.57440258,742.0]},"type":"Feature","properties":{"znaComarcal":"681304","ID":"id13055","Municipio":"Mestanza","cPrecp":"0.1"}},{"geometry":{"type":"Point","coordinates":[-3.58308095,38.8297258,671.0]},"type":"Feature","properties":{"znaComarcal":"681302","ID":"id13058","Municipio":"Moral de Calatrava","cPrecp":""}},{"geometry":{"type":"Point","coordinates":[-4.52069918,39.49526795,666.0]},"type":"Feature","properties":{"znaComarcal":"681301","ID":"id13060","Municipio":"Navas de Estena","cPrecp":""}},{"geometry":{"type":"Point","coordinates":[-2.94669146,39.4029225,661.0]},"type":"Feature","properties":{"znaComarcal":"681302","ID":"id13061","Municipio":"Pedro Muñoz","cPrecp":""}},{"geometry":{"type":"Point","coordinates":[-4.17460175,39.03613631,598.0]},"type":"Feature","properties":{"znaComarcal":"681303","ID":"id13063","Municipio":"Piedrabuena","cPrecp":""}},{"geometry":{"type":"Point","coordinates":[-3.83749836,38.9119853,624.0]},"type":"Feature","properties":{"znaComarcal":"681303","ID":"id13066","Municipio":"Pozuelo de Calatrava","cPrecp":""}},{"geometry":{"type":"Point","coordinates":[-4.62113541,39.0862018,498.0]},"type":"Feature","properties":{"znaComarcal":"681303","ID":"id13068","Municipio":"Puebla de Don Rodrigo","cPrecp":""}},{"geometry":{"type":"Point","coordinates":[-4.11252413,38.68621065,704.0]},"type":"Feature","properties":{"znaComarcal":"681303","ID":"id13071","Municipio":"Puertollano","cPrecp":""}},{"geometry":{"type":"Point","coordinates":[-4.40954219,39.46152845,733.0]},"type":"Feature","properties":{"znaComarcal":"681301","ID":"id13072","Municipio":"Retuerta del Bullaque","cPrecp":""}},{"geometry":{"type":"Point","coordinates":[-4.60749819,38.94357285,590.0]},"type":"Feature","properties":{"znaComarcal":"681303","ID":"id13073","Municipio":"Saceruela","cPrecp":""}},{"geometry":{"type":"Point","coordinates":[-3.82499024,38.4768162,764.0]},"type":"Feature","properties":{"znaComarcal":"681304","ID":"id13075","Municipio":"San Lorenzo de Calatrava","cPrecp":"0.1"}},{"geometry":{"type":"Point","coordinates":[-3.46781854,38.64460444,719.0]},"type":"Feature","properties":{"znaComarcal":"681302","ID":"id13077","Municipio":"Santa Cruz de Mudela","cPrecp":""}},{"geometry":{"type":"Point","coordinates":[-2.79256795,39.28470716,680.0]},"type":"Feature","properties":{"znaComarcal":"681302","ID":"id13078","Municipio":"Socuéllamos","cPrecp":""}},{"geometry":{"type":"Point","coordinates":[-3.23898186,38.94132419,767.0]},"type":"Feature","properties":{"znaComarcal":"681302","ID":"id13079","Municipio":"Solana, La","cPrecp":""}},{"geometry":{"type":"Point","coordinates":[-4.07417743,38.46623417,728.0]},"type":"Feature","properties":{"znaComarcal":"681304","ID":"id13080","Municipio":"Solana del Pino","cPrecp":"0.1"}},{"geometry":{"type":"Point","coordinates":[-3.02095446,39.158286,663.0]},"type":"Feature","properties":{"znaComarcal":"681302","ID":"id13082","Municipio":"Tomelloso","cPrecp":""}},{"geometry":{"type":"Point","coordinates":[-3.36552781,38.64046216,734.0]},"type":"Feature","properties":{"znaComarcal":"681302","ID":"id13085","Municipio":"Torrenueva","cPrecp":"0.1"}},{"geometry":{"type":"Point","coordinates":[-3.38512716,38.76025481,706.0]},"type":"Feature","properties":{"znaComarcal":"681302","ID":"id13087","Municipio":"Valdepeñas","cPrecp":""}},{"geometry":{"type":"Point","coordinates":[-2.99783593,38.54730687,856.0]},"type":"Feature","properties":{"znaComarcal":"681302","ID":"id13090","Municipio":"Villamanrique","cPrecp":""}},{"geometry":{"type":"Point","coordinates":[-4.13830058,38.78914242,663.0]},"type":"Feature","properties":{"znaComarcal":"681303","ID":"id13091","Municipio":"Villamayor de Calatrava","cPrecp":""}},{"geometry":{"type":"Point","coordinates":[-2.69540307,38.69245173,1004.0]},"type":"Feature","properties":{"znaComarcal":"681302","ID":"id13092","Municipio":"Villanueva de la Fuente","cPrecp":""}},{"geometry":{"type":"Point","coordinates":[-3.01508514,38.73700614,879.0]},"type":"Feature","properties":{"znaComarcal":"681302","ID":"id13093","Municipio":"Villanueva de los Infantes","cPrecp":""}},{"geometry":{"type":"Point","coordinates":[-3.90934884,38.62128092,650.0]},"type":"Feature","properties":{"znaComarcal":"681303","ID":"id13094","Municipio":"Villanueva de San Carlos","cPrecp":"0.1"}},{"geometry":{"type":"Point","coordinates":[-3.60771898,39.21933236,624.0]},"type":"Feature","properties":{"znaComarcal":"681301","ID":"id13096","Municipio":"Villarrubia de los Ojos","cPrecp":""}},{"geometry":{"type":"Point","coordinates":[-3.42248385,39.23817138,628.0]},"type":"Feature","properties":{"znaComarcal":"681302","ID":"id13097","Municipio":"Villarta de San Juan","cPrecp":""}},{"geometry":{"type":"Point","coordinates":[-4.27900441,39.21930652,590.0]},"type":"Feature","properties":{"znaComarcal":"681301","ID":"id13901","Municipio":"Robledo, El","cPrecp":""}},{"geometry":{"type":"Point","coordinates":[-2.88467603,38.97575422,798.0]},"type":"Feature","properties":{"znaComarcal":"681302","ID":"id13902","Municipio":"Ruidera","cPrecp":""}},{"geometry":{"type":"Point","coordinates":[-3.03027646,39.3083171,645.0]},"type":"Feature","properties":{"znaComarcal":"681302","ID":"id13903","Municipio":"Arenales de San Gregorio","cPrecp":""}},{"geometry":{"type":"Point","coordinates":[-3.35120326,39.11811103,649.0]},"type":"Feature","properties":{"znaComarcal":"681302","ID":"id13904","Municipio":"Llanos del Caudillo","cPrecp":""}},{"geometry":{"type":"Point","coordinates":[-2.0862032,39.54670505,840.0]},"type":"Feature","properties":{"znaComarcal":"681603","ID":"id16003","Municipio":"Alarcón","cPrecp":"0.1"}},{"geometry":{"type":"Point","coordinates":[-2.49058346,39.51323012,811.0]},"type":"Feature","properties":{"znaComarcal":"681603","ID":"id16007","Municipio":"Alberca de Záncara, La","cPrecp":"0.1"}},{"geometry":{"type":"Point","coordinates":[-2.33196424,40.54840902,843.0]},"type":"Feature","properties":{"znaComarcal":"681601","ID":"id16009","Municipio":"Alcantud","cPrecp":""}},{"geometry":{"type":"Point","coordinates":[-1.90192562,39.72560852,994.0]},"type":"Feature","properties":{"znaComarcal":"681603","ID":"id16017","Municipio":"Almodóvar del Pinar","cPrecp":"0.1"}},{"geometry":{"type":"Point","coordinates":[-2.11347366,40.34698523,1000.0]},"type":"Feature","properties":{"znaComarcal":"681602","ID":"id16022","Municipio":"Arcos de la Sierra","cPrecp":"0.1"}},{"geometry":{"type":"Point","coordinates":[-2.91599075,40.12245288,701.0]},"type":"Feature","properties":{"znaComarcal":"681601","ID":"id16027","Municipio":"Barajas de Melo","cPrecp":""}},{"geometry":{"type":"Point","coordinates":[-2.07558452,40.57221703,1217.0]},"type":"Feature","properties":{"znaComarcal":"681602","ID":"id16035","Municipio":"Beteta","cPrecp":""}},{"geometry":{"type":"Point","coordinates":[-2.7575846,40.36604124,739.0]},"type":"Feature","properties":{"znaComarcal":"681601","ID":"id16041","Municipio":"Buendía","cPrecp":""}},{"geometry":{"type":"Point","coordinates":[-2.39595473,40.35979825,817.0]},"type":"Feature","properties":{"znaComarcal":"681601","ID":"id16050","Municipio":"Cañaveras","cPrecp":""}},{"geometry":{"type":"Point","coordinates":[-1.81320516,39.89986629,1027.0]},"type":"Feature","properties":{"znaComarcal":"681602","ID":"id16055","Municipio":"Carboneras de Guadazaón","cPrecp":""}},{"geometry":{"type":"Point","coordinates":[-2.13152306,40.07653762,997.0]},"type":"Feature","properties":{"znaComarcal":"681602","ID":"id16078","Municipio":"Cuenca","cPrecp":""}},{"geometry":{"type":"Point","coordinates":[-1.6068606,39.6735915,734.0]},"type":"Feature","properties":{"znaComarcal":"681602","ID":"id16082","Municipio":"Enguídanos","cPrecp":"0.1"}},{"geometry":{"type":"Point","coordinates":[-2.31395832,39.92519278,902.0]},"type":"Feature","properties":{"znaComarcal":"681602","ID":"id16083","Municipio":"Fresneda de Altarejos","cPrecp":""}},{"geometry":{"type":"Point","coordinates":[-2.66971638,39.69004964,851.0]},"type":"Feature","properties":{"znaComarcal":"681603","ID":"id16087","Municipio":"Fuentelespino de Haro","cPrecp":"0.1"}},{"geometry":{"type":"Point","coordinates":[-1.4697313,39.92038263,1104.0]},"type":"Feature","properties":{"znaComarcal":"681602","ID":"id16088","Municipio":"Fuentelespino de Moya","cPrecp":""}},{"geometry":{"type":"Point","coordinates":[-2.02241033,39.94984979,1023.0]},"type":"Feature","properties":{"znaComarcal":"681602","ID":"id16089","Municipio":"Fuentes","cPrecp":""}},{"geometry":{"type":"Point","coordinates":[-2.82462934,39.6031679,775.0]},"type":"Feature","properties":{"znaComarcal":"681603","ID":"id16100","Municipio":"Hinojosos, Los","cPrecp":""}},{"geometry":{"type":"Point","coordinates":[-2.28052957,39.61196266,815.0]},"type":"Feature","properties":{"znaComarcal":"681603","ID":"id16102","Municipio":"Honrubia","cPrecp":"0.1"}},{"geometry":{"type":"Point","coordinates":[-2.99714777,39.84186486,756.0]},"type":"Feature","properties":{"znaComarcal":"681603","ID":"id16106","Municipio":"Horcajo de Santiago","cPrecp":""}},{"geometry":{"type":"Point","coordinates":[-2.69166859,40.14530976,835.0]},"type":"Feature","properties":{"znaComarcal":"681603","ID":"id16112","Municipio":"Huete","cPrecp":""}},{"geometry":{"type":"Point","coordinates":[-1.74974952,39.44322663,769.0]},"type":"Feature","properties":{"znaComarcal":"681603","ID":"id16113","Municipio":"Iniesta","cPrecp":"0.1"}},{"geometry":{"type":"Point","coordinates":[-1.44005271,39.72027555,830.0]},"type":"Feature","properties":{"znaComarcal":"681602","ID":"id16126","Municipio":"Mira","cPrecp":""}},{"geometry":{"type":"Point","coordinates":[-2.87081044,39.49865371,707.0]},"type":"Feature","properties":{"znaComarcal":"681603","ID":"id16133","Municipio":"Mota del Cuervo","cPrecp":""}},{"geometry":{"type":"Point","coordinates":[-1.90994719,39.56052095,830.0]},"type":"Feature","properties":{"znaComarcal":"681603","ID":"id16134","Municipio":"Motilla del Palancar","cPrecp":"0.1"}},{"geometry":{"type":"Point","coordinates":[-2.08303917,39.80837829,938.0]},"type":"Feature","properties":{"znaComarcal":"681603","ID":"id16141","Municipio":"Olmeda del Rey","cPrecp":""}},{"geometry":{"type":"Point","coordinates":[-2.59892074,39.9477122,877.0]},"type":"Feature","properties":{"znaComarcal":"681603","ID":"id16148","Municipio":"Palomares del Campo","cPrecp":"0.1"}},{"geometry":{"type":"Point","coordinates":[-1.78860855,39.7173904,969.0]},"type":"Feature","properties":{"znaComarcal":"681602","ID":"id16150","Municipio":"Paracuellos","cPrecp":""}},{"geometry":{"type":"Point","coordinates":[-2.67521669,39.45215365,709.0]},"type":"Feature","properties":{"znaComarcal":"681603","ID":"id16154","Municipio":"Pedroñeras, Las","cPrecp":"0.1"}},{"geometry":{"type":"Point","coordinates":[-1.58539573,39.5723678,795.0]},"type":"Feature","properties":{"znaComarcal":"681602","ID":"id16157","Municipio":"Pesquera, La","cPrecp":""}},{"geometry":{"type":"Point","coordinates":[-2.54329702,40.08580618,976.0]},"type":"Feature","properties":{"znaComarcal":"681601","ID":"id16160","Municipio":"Pineda de Gigüela","cPrecp":""}},{"geometry":{"type":"Point","coordinates":[-2.31716398,40.44855782,848.0]},"type":"Feature","properties":{"znaComarcal":"681601","ID":"id16170","Municipio":"Priego","cPrecp":""}},{"geometry":{"type":"Point","coordinates":[-1.92764017,39.34251913,728.0]},"type":"Feature","properties":{"znaComarcal":"681603","ID":"id16175","Municipio":"Quintanar del Rey","cPrecp":"0.1"}},{"geometry":{"type":"Point","coordinates":[-2.80522516,39.9209975,930.0]},"type":"Feature","properties":{"znaComarcal":"681603","ID":"id16186","Municipio":"Saelices","cPrecp":""}},{"geometry":{"type":"Point","coordinates":[-1.50242309,40.0987678,1212.0]},"type":"Feature","properties":{"znaComarcal":"681602","ID":"id16189","Municipio":"Salvacañete","cPrecp":""}},{"geometry":{"type":"Point","coordinates":[-2.42962901,39.40330614,721.0]},"type":"Feature","properties":{"znaComarcal":"681603","ID":"id16190","Municipio":"San Clemente","cPrecp":"0.1"}},{"geometry":{"type":"Point","coordinates":[-1.25487494,39.95479741,763.0]},"type":"Feature","properties":{"znaComarcal":"681602","ID":"id16194","Municipio":"Santa Cruz de Moya","cPrecp":""}},{"geometry":{"type":"Point","coordinates":[-2.20115957,39.40713272,744.0]},"type":"Feature","properties":{"znaComarcal":"681603","ID":"id16198","Municipio":"Sisante","cPrecp":"0.1"}},{"geometry":{"type":"Point","coordinates":[-1.28430223,39.84759587,991.0]},"type":"Feature","properties":{"znaComarcal":"681602","ID":"id16202","Municipio":"Talayuelas","cPrecp":""}},{"geometry":{"type":"Point","coordinates":[-3.00299913,40.01100721,805.0]},"type":"Feature","properties":{"znaComarcal":"681603","ID":"id16203","Municipio":"Tarancón","cPrecp":""}},{"geometry":{"type":"Point","coordinates":[-1.85099186,40.34920575,1281.0]},"type":"Feature","properties":{"znaComarcal":"681602","ID":"id16215","Municipio":"Tragacete","cPrecp":""}},{"geometry":{"type":"Point","coordinates":[-1.97819824,40.22338108,1139.0]},"type":"Feature","properties":{"znaComarcal":"681602","ID":"id16219","Municipio":"Uña","cPrecp":""}},{"geometry":{"type":"Point","coordinates":[-1.76707909,40.10118642,1111.0]},"type":"Feature","properties":{"znaComarcal":"681602","ID":"id16227","Municipio":"Valdemoro-Sierra","cPrecp":""}},{"geometry":{"type":"Point","coordinates":[-2.02364497,39.61573723,867.0]},"type":"Feature","properties":{"znaComarcal":"681603","ID":"id16237","Municipio":"Valverdejo","cPrecp":"0.1"}},{"geometry":{"type":"Point","coordinates":[-2.92775691,39.7285842,775.0]},"type":"Feature","properties":{"znaComarcal":"681603","ID":"id16249","Municipio":"Villamayor de Santiago","cPrecp":""}},{"geometry":{"type":"Point","coordinates":[-2.29427547,40.23853491,933.0]},"type":"Feature","properties":{"znaComarcal":"681601","ID":"id16254","Municipio":"Villar de Domingo García","cPrecp":""}},{"geometry":{"type":"Point","coordinates":[-1.62719785,39.87018066,990.0]},"type":"Feature","properties":{"znaComarcal":"681602","ID":"id16258","Municipio":"Villar del Humo","cPrecp":""}},{"geometry":{"type":"Point","coordinates":[-2.50690692,39.84039096,869.0]},"type":"Feature","properties":{"znaComarcal":"681603","ID":"id16269","Municipio":"Villares del Saz","cPrecp":"0.1"}},{"geometry":{"type":"Point","coordinates":[-2.2650562,39.7704989,857.0]},"type":"Feature","properties":{"znaComarcal":"681603","ID":"id16273","Municipio":"Villaverde y Pasaconsol","cPrecp":"0.1"}},{"geometry":{"type":"Point","coordinates":[-2.66723541,40.96451938,1116.0]},"type":"Feature","properties":{"znaComarcal":"681901","ID":"id19017","Municipio":"Algora","cPrecp":""}},{"geometry":{"type":"Point","coordinates":[-2.98140244,40.29802922,665.0]},"type":"Feature","properties":{"znaComarcal":"681903","ID":"id19021","Municipio":"Almoguera","cPrecp":""}},{"geometry":{"type":"Point","coordinates":[-1.65887289,40.61642277,1398.0]},"type":"Feature","properties":{"znaComarcal":"681902","ID":"id19027","Municipio":"Alustante","cPrecp":""}},{"geometry":{"type":"Point","coordinates":[-2.8708561,41.19958752,1167.0]},"type":"Feature","properties":{"znaComarcal":"681901","ID":"id19044","Municipio":"Atienza","cPrecp":""}},{"geometry":{"type":"Point","coordinates":[-2.87028879,40.75708452,876.0]},"type":"Feature","properties":{"znaComarcal":"681903","ID":"id19053","Municipio":"Brihuega","cPrecp":""}},{"geometry":{"type":"Point","coordinates":[-3.31430959,41.08568076,1101.0]},"type":"Feature","properties":{"znaComarcal":"681901","ID":"id19060","Municipio":"Campillo de Ranas","cPrecp":""}},{"geometry":{"type":"Point","coordinates":[-3.24439345,41.23578603,1318.0]},"type":"Feature","properties":{"znaComarcal":"681901","ID":"id19065","Municipio":"Cantalojas","cPrecp":""}},{"geometry":{"type":"Point","coordinates":[-3.42720929,40.70240047,833.0]},"type":"Feature","properties":{"znaComarcal":"681903","ID":"id19071","Municipio":"Casar, El","cPrecp":""}},{"geometry":{"type":"Point","coordinates":[-2.62328372,40.78558478,893.0]},"type":"Feature","properties":{"znaComarcal":"681903","ID":"id19086","Municipio":"Cifuentes","cPrecp":""}},{"geometry":{"type":"Point","coordinates":[-3.08890586,40.94901358,898.0]},"type":"Feature","properties":{"znaComarcal":"681903","ID":"id19092","Municipio":"Cogolludo","cPrecp":""}},{"geometry":{"type":"Point","coordinates":[-1.79090849,40.58695505,1356.0]},"type":"Feature","properties":{"znaComarcal":"681902","ID":"id19103","Municipio":"Checa","cPrecp":""}},{"geometry":{"type":"Point","coordinates":[-1.71263318,40.97172389,1075.0]},"type":"Feature","properties":{"znaComarcal":"681902","ID":"id19109","Municipio":"Embid","cPrecp":""}},{"geometry":{"type":"Point","coordinates":[-3.16210273,40.63435548,685.0]},"type":"Feature","properties":{"znaComarcal":"681903","ID":"id19130","Municipio":"Guadalajara","cPrecp":""}},{"geometry":{"type":"Point","coordinates":[-3.15366319,40.82713472,749.0]},"type":"Feature","properties":{"znaComarcal":"681903","ID":"id19151","Municipio":"Humanes","cPrecp":""}},{"geometry":{"type":"Point","coordinates":[-2.92246649,40.92513972,830.0]},"type":"Feature","properties":{"znaComarcal":"681903","ID":"id19156","Municipio":"Jadraque","cPrecp":""}},{"geometry":{"type":"Point","coordinates":[-3.2468339,40.7894712,780.0]},"type":"Feature","properties":{"znaComarcal":"681903","ID":"id19166","Municipio":"Málaga del Fresno","cPrecp":""}},{"geometry":{"type":"Point","coordinates":[-2.20703082,41.04770289,1256.0]},"type":"Feature","properties":{"znaComarcal":"681902","ID":"id19170","Municipio":"Maranchón","cPrecp":""}},{"geometry":{"type":"Point","coordinates":[-1.87566645,41.08587604,1068.0]},"type":"Feature","properties":{"znaComarcal":"681902","ID":"id19183","Municipio":"Milmarcos","cPrecp":""}},{"geometry":{"type":"Point","coordinates":[-1.89058836,40.8423812,1059.0]},"type":"Feature","properties":{"znaComarcal":"681902","ID":"id19190","Municipio":"Molina de Aragón","cPrecp":""}},{"geometry":{"type":"Point","coordinates":[-3.10966031,40.32247541,796.0]},"type":"Feature","properties":{"znaComarcal":"681903","ID":"id19192","Municipio":"Mondéjar","cPrecp":""}},{"geometry":{"type":"Point","coordinates":[-2.91087565,41.05557016,917.0]},"type":"Feature","properties":{"znaComarcal":"681901","ID":"id19208","Municipio":"Pálmaces de Jadraque","cPrecp":""}},{"geometry":{"type":"Point","coordinates":[-2.92458935,40.4163152,755.0]},"type":"Feature","properties":{"znaComarcal":"681903","ID":"id19212","Municipio":"Pastrana","cPrecp":""}},{"geometry":{"type":"Point","coordinates":[-2.88951245,40.58071239,940.0]},"type":"Feature","properties":{"znaComarcal":"681903","ID":"id19215","Municipio":"Peñalver","cPrecp":""}},{"geometry":{"type":"Point","coordinates":[-3.17615252,40.46341529,876.0]},"type":"Feature","properties":{"znaComarcal":"681903","ID":"id19220","Municipio":"Pioz","cPrecp":""}},{"geometry":{"type":"Point","coordinates":[-1.6511278,40.77660899,1258.0]},"type":"Feature","properties":{"znaComarcal":"681902","ID":"id19222","Municipio":"Pobo de Dueñas, El","cPrecp":""}},{"geometry":{"type":"Point","coordinates":[-2.29637364,40.91300811,999.0]},"type":"Feature","properties":{"znaComarcal":"681901","ID":"id19235","Municipio":"Riba de Saelices","cPrecp":""}},{"geometry":{"type":"Point","coordinates":[-2.41695393,40.83274111,1118.0]},"type":"Feature","properties":{"znaComarcal":"681903","ID":"id19244","Municipio":"Sacecorbo","cPrecp":""}},{"geometry":{"type":"Point","coordinates":[-2.7329832,40.48091606,739.0]},"type":"Feature","properties":{"znaComarcal":"681903","ID":"id19245","Municipio":"Sacedón","cPrecp":""}},{"geometry":{"type":"Point","coordinates":[-2.5293556,41.03164509,1100.0]},"type":"Feature","properties":{"znaComarcal":"681901","ID":"id19251","Municipio":"Saúca","cPrecp":""}},{"geometry":{"type":"Point","coordinates":[-2.64143034,41.06836067,1004.0]},"type":"Feature","properties":{"znaComarcal":"681901","ID":"id19257","Municipio":"Sigüenza","cPrecp":""}},{"geometry":{"type":"Point","coordinates":[-1.90436902,40.69475793,1181.0]},"type":"Feature","properties":{"znaComarcal":"681902","ID":"id19267","Municipio":"Terzaga","cPrecp":""}},{"geometry":{"type":"Point","coordinates":[-2.04508541,40.88971561,1291.0]},"type":"Feature","properties":{"znaComarcal":"681902","ID":"id19283","Municipio":"Torremocha del Pinar","cPrecp":""}},{"geometry":{"type":"Point","coordinates":[-2.59279298,40.70143086,730.0]},"type":"Feature","properties":{"znaComarcal":"681903","ID":"id19291","Municipio":"Trillo","cPrecp":""}},{"geometry":{"type":"Point","coordinates":[-2.25292046,40.67880352,1272.0]},"type":"Feature","properties":{"znaComarcal":"681903","ID":"id19317","Municipio":"Villanueva de Alcorón","cPrecp":""}},{"geometry":{"type":"Point","coordinates":[-2.2021796,40.76209921,1223.0]},"type":"Feature","properties":{"znaComarcal":"681903","ID":"id19333","Municipio":"Zaorejas","cPrecp":""}},{"geometry":{"type":"Point","coordinates":[-3.12165826,41.0574964,1196.0]},"type":"Feature","properties":{"znaComarcal":"681901","ID":"id19901","Municipio":"Semillas","cPrecp":""}},{"geometry":{"type":"Point","coordinates":[-5.01945289,39.75906357,510.0]},"type":"Feature","properties":{"znaComarcal":"684502","ID":"id45009","Municipio":"Aldeanueva de Barbarroya","cPrecp":""}},{"geometry":{"type":"Point","coordinates":[-3.85489355,39.75317956,713.0]},"type":"Feature","properties":{"znaComarcal":"684503","ID":"id45012","Municipio":"Almonacid de Toledo","cPrecp":""}},{"geometry":{"type":"Point","coordinates":[-4.3915911,40.23314998,535.0]},"type":"Feature","properties":{"znaComarcal":"684501","ID":"id45013","Municipio":"Almorox","cPrecp":""}},{"geometry":{"type":"Point","coordinates":[-4.52491513,40.04583035,463.0]},"type":"Feature","properties":{"znaComarcal":"684502","ID":"id45040","Municipio":"Casar de Escalona, El","cPrecp":""}},{"geometry":{"type":"Point","coordinates":[-4.57258833,39.9472367,439.0]},"type":"Feature","properties":{"znaComarcal":"684502","ID":"id45046","Municipio":"Cebolla","cPrecp":""}},{"geometry":{"type":"Point","coordinates":[-3.16447964,39.75947704,701.0]},"type":"Feature","properties":{"znaComarcal":"684504","ID":"id45054","Municipio":"Corral de Almaguer","cPrecp":""}},{"geometry":{"type":"Point","coordinates":[-4.2732415,39.70077486,711.0]},"type":"Feature","properties":{"znaComarcal":"684503","ID":"id45067","Municipio":"Gálvez","cPrecp":""}},{"geometry":{"type":"Point","coordinates":[-3.47667136,39.78831523,698.0]},"type":"Feature","properties":{"znaComarcal":"684504","ID":"id45071","Municipio":"Guardia, La","cPrecp":""}},{"geometry":{"type":"Point","coordinates":[-3.84923771,40.12412418,589.0]},"type":"Feature","properties":{"znaComarcal":"684502","ID":"id45081","Municipio":"Illescas","cPrecp":""}},{"geometry":{"type":"Point","coordinates":[-3.53369545,39.4684254,687.0]},"type":"Feature","properties":{"znaComarcal":"684504","ID":"id45087","Municipio":"Madridejos","cPrecp":""}},{"geometry":{"type":"Point","coordinates":[-4.19583888,40.23782441,538.0]},"type":"Feature","properties":{"znaComarcal":"684502","ID":"id45099","Municipio":"Méntrida","cPrecp":""}},{"geometry":{"type":"Point","coordinates":[-5.14406081,39.60420589,646.0]},"type":"Feature","properties":{"znaComarcal":"684503","ID":"id45103","Municipio":"Mohedas de la Jara","cPrecp":""}},{"geometry":{"type":"Point","coordinates":[-4.93936509,40.10639058,558.0]},"type":"Feature","properties":{"znaComarcal":"684501","ID":"id45105","Municipio":"Montesclaros","cPrecp":""}},{"geometry":{"type":"Point","coordinates":[-3.77421246,39.6844219,721.0]},"type":"Feature","properties":{"znaComarcal":"684504","ID":"id45106","Municipio":"Mora","cPrecp":""}},{"geometry":{"type":"Point","coordinates":[-4.47014088,39.63276002,739.0]},"type":"Feature","properties":{"znaComarcal":"684503","ID":"id45109","Municipio":"Navahermosa","cPrecp":""}},{"geometry":{"type":"Point","coordinates":[-5.09290716,40.06828657,393.0]},"type":"Feature","properties":{"znaComarcal":"684502","ID":"id45110","Municipio":"Navalcán","cPrecp":""}},{"geometry":{"type":"Point","coordinates":[-4.64187912,39.66669754,745.0]},"type":"Feature","properties":{"znaComarcal":"684503","ID":"id45113","Municipio":"Navalucillos, Los","cPrecp":""}},{"geometry":{"type":"Point","coordinates":[-3.49957848,39.96022886,733.0]},"type":"Feature","properties":{"znaComarcal":"684504","ID":"id45121","Municipio":"Ocaña","cPrecp":""}},{"geometry":{"type":"Point","coordinates":[-5.17249007,39.91910626,422.0]},"type":"Feature","properties":{"znaComarcal":"684502","ID":"id45125","Municipio":"Oropesa","cPrecp":""}},{"geometry":{"type":"Point","coordinates":[-4.16924759,39.78791203,646.0]},"type":"Feature","properties":{"znaComarcal":"684502","ID":"id45133","Municipio":"Polán","cPrecp":""}},{"geometry":{"type":"Point","coordinates":[-4.35687837,39.86530851,508.0]},"type":"Feature","properties":{"znaComarcal":"684502","ID":"id45136","Municipio":"Puebla de Montalbán, La","cPrecp":""}},{"geometry":{"type":"Point","coordinates":[-3.04285854,39.59067816,695.0]},"type":"Feature","properties":{"znaComarcal":"684504","ID":"id45142","Municipio":"Quintanar de la Orden","cPrecp":""}},{"geometry":{"type":"Point","coordinates":[-4.69032183,40.13569751,751.0]},"type":"Feature","properties":{"znaComarcal":"684501","ID":"id45144","Municipio":"Real de San Vicente, El","cPrecp":""}},{"geometry":{"type":"Point","coordinates":[-3.9912326,40.0544888,569.0]},"type":"Feature","properties":{"znaComarcal":"684502","ID":"id45145","Municipio":"Recas","cPrecp":""}},{"geometry":{"type":"Point","coordinates":[-4.75509163,39.74284768,610.0]},"type":"Feature","properties":{"znaComarcal":"684503","ID":"id45146","Municipio":"Retamoso de la Jara","cPrecp":""}},{"geometry":{"type":"Point","coordinates":[-4.71981077,39.83000928,552.0]},"type":"Feature","properties":{"znaComarcal":"684502","ID":"id45150","Municipio":"San Bartolomé de las Abiertas","cPrecp":""}},{"geometry":{"type":"Point","coordinates":[-4.63036294,39.78315427,506.0]},"type":"Feature","properties":{"znaComarcal":"684502","ID":"id45152","Municipio":"San Martín de Pusa","cPrecp":""}},{"geometry":{"type":"Point","coordinates":[-4.33151266,39.53953772,907.0]},"type":"Feature","properties":{"znaComarcal":"684503","ID":"id45153","Municipio":"San Pablo de los Montes","cPrecp":""}},{"geometry":{"type":"Point","coordinates":[-4.73063141,40.0677697,447.0]},"type":"Feature","properties":{"znaComarcal":"684502","ID":"id45154","Municipio":"San Román de los Montes","cPrecp":""}},{"geometry":{"type":"Point","coordinates":[-4.24156628,40.11849392,595.0]},"type":"Feature","properties":{"znaComarcal":"684502","ID":"id45157","Municipio":"Santa Cruz del Retamar","cPrecp":""}},{"geometry":{"type":"Point","coordinates":[-3.69816072,40.10382547,610.0]},"type":"Feature","properties":{"znaComarcal":"684502","ID":"id45161","Municipio":"Seseña","cPrecp":""}},{"geometry":{"type":"Point","coordinates":[-4.96415419,39.57578193,667.0]},"type":"Feature","properties":{"znaComarcal":"684503","ID":"id45162","Municipio":"Sevilleja de la Jara","cPrecp":""}},{"geometry":{"type":"Point","coordinates":[-3.97425527,39.67641138,755.0]},"type":"Feature","properties":{"znaComarcal":"684503","ID":"id45163","Municipio":"Sonseca","cPrecp":""}},{"geometry":{"type":"Point","coordinates":[-4.83370199,39.96016737,367.0]},"type":"Feature","properties":{"znaComarcal":"684502","ID":"id45165","Municipio":"Talavera de la Reina","cPrecp":""}},{"geometry":{"type":"Point","coordinates":[-3.50343059,39.69700116,637.0]},"type":"Feature","properties":{"znaComarcal":"684504","ID":"id45166","Municipio":"Tembleque","cPrecp":""}},{"geometry":{"type":"Point","coordinates":[-4.02431421,39.85715187,516.0]},"type":"Feature","properties":{"znaComarcal":"684502","ID":"id45168","Municipio":"Toledo","cPrecp":""}},{"geometry":{"type":"Point","coordinates":[-4.28548503,39.98152383,527.0]},"type":"Feature","properties":{"znaComarcal":"684502","ID":"id45173","Municipio":"Torrijos","cPrecp":""}},{"geometry":{"type":"Point","coordinates":[-3.61192073,39.60102589,691.0]},"type":"Feature","properties":{"znaComarcal":"684504","ID":"id45175","Municipio":"Turleque","cPrecp":""}},{"geometry":{"type":"Point","coordinates":[-3.7158477,39.41215105,764.0]},"type":"Feature","properties":{"znaComarcal":"684504","ID":"id45177","Municipio":"Urda","cPrecp":""}},{"geometry":{"type":"Point","coordinates":[-4.22925866,39.61065353,790.0]},"type":"Feature","properties":{"znaComarcal":"684503","ID":"id45182","Municipio":"Ventas con Peña Aguilera, Las","cPrecp":""}},{"geometry":{"type":"Point","coordinates":[-5.29550741,40.00822692,315.0]},"type":"Feature","properties":{"znaComarcal":"684502","ID":"id45184","Municipio":"Ventas de San Julián, Las","cPrecp":""}},{"geometry":{"type":"Point","coordinates":[-3.33308335,39.62406188,664.0]},"type":"Feature","properties":{"znaComarcal":"684504","ID":"id45185","Municipio":"Villacañas","cPrecp":""}},{"geometry":{"type":"Point","coordinates":[-3.36272107,39.42604853,642.0]},"type":"Feature","properties":{"znaComarcal":"684504","ID":"id45187","Municipio":"Villafranca de los Caballeros","cPrecp":""}},{"geometry":{"type":"Point","coordinates":[-3.37049918,39.98698528,757.0]},"type":"Feature","properties":{"znaComarcal":"684504","ID":"id45195","Municipio":"Villarrubia de Santiago","cPrecp":""}},{"geometry":{"type":"Point","coordinates":[-3.73131055,39.8767928,517.0]},"type":"Feature","properties":{"znaComarcal":"684504","ID":"id45197","Municipio":"Villasequilla","cPrecp":""}},{"geometry":{"type":"Point","coordinates":[-3.32257608,39.90058759,726.0]},"type":"Feature","properties":{"znaComarcal":"684504","ID":"id45198","Municipio":"Villatobas","cPrecp":""}},{"geometry":{"type":"Point","coordinates":[-3.87090634,39.58190415,818.0]},"type":"Feature","properties":{"znaComarcal":"684503","ID":"id45200","Municipio":"Yébenes, Los","cPrecp":""}}]}